City_ID,City,Lat,Lng,Max Temp,Humidity,Cloudiness,Wind Speed,Country,Date
0,kangding,30.0513,101.9603,10.73,85,98,1.51,CN,1714955605
1,kodiak,57.79,-152.4072,6.73,76,100,5.66,US,1714955606
2,olonkinbyen,70.9221,-8.7187,1.14,91,100,12.18,SJ,1714955606
3,adamstown,-25.066,-130.1015,21.58,66,38,8.49,PN,1714955606
4,grytviken,-54.2811,-36.5092,2.09,88,32,4.44,GS,1714955606
5,sal rei,16.1833,-22.9167,22.52,80,0,5.47,CV,1714955606
6,port lincoln,-34.7333,135.8667,16.36,75,6,4.97,AU,1714955607
7,edinburgh of the seven seas,-37.0676,-12.3116,12.98,64,100,13.12,SH,1714955607
8,hobyo,5.3505,48.5268,27.96,71,28,6.02,SO,1714955607
9,nola,40.922,14.5329,15.35,92,1,0.56,IT,1714955608
10,utrik,11.2278,169.8474,27.58,80,100,7.79,MH,1714955608
11,palikir - national government center,6.9248,158.1611,29.47,84,100,4.12,FM,1714955608
12,kilindoni,-7.9139,39.6668,25.37,87,100,6.04,TZ,1714955609
13,tiksi,71.6872,128.8694,-1.98,83,42,1.71,RU,1714955610
14,strezhevoy,60.7333,77.5889,0.54,89,100,4.47,RU,1714955610
15,iqaluit,63.7506,-68.5145,-3.15,80,100,5.14,CA,1714955610
16,blackmans bay,-43.0167,147.3167,13.74,65,36,0.48,AU,1714955610
17,iskateley,67.6803,53.1512,-7.21,88,100,1.79,RU,1714955610
18,rio grande,-32.035,-52.0986,24.06,95,60,2.92,BR,1714955611
19,port-aux-francais,-49.35,70.2167,5.35,78,98,11.07,TF,1714955611
20,la toma,-33.0526,-65.6238,11.63,86,0,0.11,AR,1714955611
21,enewetak,11.3474,162.3373,27.7,76,79,8.42,MH,1714955612
22,kerikeri,-35.2268,173.9474,17.73,89,90,2.36,NZ,1714955612
23,biltine,14.5333,20.9167,30.04,13,0,3.49,TD,1714955612
24,tabou,4.423,-7.3528,27.86,79,100,3.49,CI,1714955612
25,albany,42.6526,-73.7562,11.86,94,100,3.6,US,1714955546
26,hithadhoo,-0.6,73.0833,29.63,76,17,5.56,MV,1714955613
27,carbonear,47.7332,-53.2148,0.62,89,8,1.25,CA,1714955613
28,kogalym,62.2654,74.4791,-4.45,93,82,8.94,RU,1714955613
29,kone,-21.0595,164.8658,28.06,45,98,2.99,NC,1714955613
30,waitangi,-43.9535,-176.5597,14.9,79,100,1.79,NZ,1714955614
31,ust-nera,64.5667,143.2,2.48,79,95,1.88,RU,1714955614
32,sao joao da barra,-21.6403,-41.0511,24.05,88,0,4.94,BR,1714955614
33,puerto ayora,-0.7393,-90.3518,23.64,96,15,1.79,EC,1714955614
34,ancud,-41.8697,-73.8203,8.91,86,100,10.4,CL,1714955615
35,bereznik,62.8551,42.7072,-4.35,83,14,2.06,RU,1714955615
36,raychikhinsk,49.7838,129.4121,14.07,42,0,3.53,RU,1714955615
37,bouar,5.934,15.596,21.01,46,6,1.31,CF,1714955615
38,boa vista,2.8197,-60.6733,29.99,70,40,1.54,BR,1714955615
39,masterton,-40.9597,175.6575,16.17,53,5,4.65,NZ,1714955616
40,qaqortoq,60.7167,-46.0333,-0.52,72,0,0.26,GL,1714955453
41,lihue,21.9789,-159.3672,27.58,68,40,8.23,US,1714955616
42,mazar-e sharif,36.709,67.1109,21.42,54,0,3.8,AF,1714955616
43,susuman,62.7833,148.1667,-2.79,86,85,0.89,RU,1714955616
44,antsiranana,-12.2787,49.2917,24.66,73,8,6.64,MG,1714955617
45,haiku-pauwela,20.9219,-156.3051,26.01,65,40,10.29,US,1714955617
46,east london,-33.0153,27.9116,21.27,39,8,3.41,ZA,1714955617
47,onguday,50.75,86.15,13.52,62,100,1.63,RU,1714955617
48,itapuranga,-15.5622,-49.9486,20.89,66,16,1.86,BR,1714955618
49,puerto natales,-51.7236,-72.4875,-1.72,87,12,1.64,CL,1714955618
50,aasiaat,68.7098,-52.8699,-12.76,93,92,2.51,GL,1714955618
51,jiangyou,31.7667,104.7167,22.19,61,91,0.95,CN,1714955618
52,lebu,-37.6167,-73.65,9.31,77,87,5.28,CL,1714955618
53,gyanpur,25.35,82.4667,27.97,20,2,4.34,IN,1714955619
54,port elizabeth,-33.918,25.5701,16.16,59,0,4.12,ZA,1714955619
55,margaret river,-33.95,115.0667,17.5,73,38,4.63,AU,1714955620
56,sitka,57.0531,-135.33,6.94,81,100,1.54,US,1714955621
57,peniche,39.3558,-9.3811,15.62,95,13,5.42,PT,1714955621
58,ushuaia,-54.8,-68.3,2.81,87,100,7.72,AR,1714955526
59,namibe,-15.1961,12.1522,22.59,74,0,2.64,AO,1714955621
60,prado,-17.3411,-39.2208,24.92,87,0,3.36,BR,1714955622
61,port mathurin,-19.6833,63.4167,26.0,66,0,9.85,MU,1714955622
62,vila franca do campo,37.7167,-25.4333,18.27,99,37,2.96,PT,1714955622
63,atafu village,-8.5421,-172.5159,29.52,73,17,3.29,TK,1714955622
64,punta arenas,-53.15,-70.9167,0.06,74,0,4.12,CL,1714955623
65,roosevelt,40.6787,-73.589,11.75,90,100,3.6,US,1714955623
66,wailua homesteads,22.0669,-159.378,27.24,74,40,8.23,US,1714955623
67,anadyr,64.75,177.4833,-2.72,63,40,3.0,RU,1714955623
68,whitehorse,60.7161,-135.0538,13.34,49,100,7.2,CA,1714955623
69,lincheng,19.9078,109.6858,27.83,64,93,1.57,CN,1714955624
70,umm qasr,30.0405,47.9168,25.93,62,17,2.86,IQ,1714955624
71,aral,40.5156,81.2636,19.98,79,17,1.45,CN,1714955624
72,bamboo flat,11.7,92.7167,27.05,89,88,1.03,IN,1714955624
73,carnarvon,-24.8667,113.6333,21.6,45,0,8.1,AU,1714955625
74,west island,-12.1568,96.8225,26.99,78,7,6.69,CC,1714955625
75,chonchi,-42.6128,-73.8092,5.62,99,100,0.88,CL,1714955625
76,moyynkum,44.2914,72.9469,10.92,84,100,1.36,KZ,1714955626
77,kollum,53.277,6.1529,10.99,93,82,1.66,NL,1714955626
78,padang,-0.9492,100.3543,27.03,80,4,1.11,ID,1714955626
79,fort st. john,56.2499,-120.8529,17.94,19,40,1.54,CA,1714955626
80,tromso,69.6489,18.9551,-0.05,69,100,0.0,NO,1714955626
81,buka,40.8108,69.1986,16.29,78,62,0.35,UZ,1714955627
82,maun,-19.9833,23.4167,16.22,44,0,1.66,BW,1714955627
83,carutapera,-1.195,-46.02,24.55,96,100,3.11,BR,1714955628
84,invercargill,-46.4,168.35,8.9,73,91,4.47,NZ,1714955628
85,vilyuysk,63.7553,121.6247,2.78,85,93,4.47,RU,1714955628
86,jamestown,42.097,-79.2353,18.77,100,100,2.57,US,1714955558
87,preobrazheniye,42.9019,133.9064,7.76,96,100,8.28,RU,1714955629
88,acarau,-2.8856,-40.12,26.08,89,100,4.03,BR,1714955629
89,fortuna,40.5982,-124.1573,14.4,60,0,4.63,US,1714955629
90,greenville,35.6127,-77.3663,22.01,97,40,2.06,US,1714955629
91,zhangjiakou,40.81,114.8794,17.23,35,100,1.18,CN,1714955629
92,tayshet,55.9342,98.0044,17.6,52,100,4.13,RU,1714955630
93,praia da vitoria,38.7333,-27.0667,18.14,94,75,5.89,PT,1714955630
94,georgetown,6.8045,-58.1553,28.16,87,100,2.23,GY,1714955630
95,pangkalpinang,-2.1333,106.1333,29.69,72,14,2.77,ID,1714955630
96,konya,38.1667,32.5,5.71,73,88,4.15,TR,1714955631
97,imperatriz,-5.5264,-47.4917,23.96,88,100,1.01,BR,1714955631
98,ke-macina,13.9623,-5.3572,34.12,12,4,5.07,ML,1714955631
99,sisimiut,66.9395,-53.6735,-7.32,83,83,5.34,GL,1714955632
100,lionel town,17.8101,-77.2406,28.94,89,20,2.72,JM,1714955632
101,la plata,-34.9215,-57.9545,18.91,98,100,2.11,AR,1714955632
102,khash,28.2211,61.2158,20.1,39,0,0.89,IR,1714955633
103,benguela,-12.5763,13.4055,26.01,83,5,3.17,AO,1714955633
104,golbasi,37.7836,37.6367,9.03,92,73,1.32,TR,1714955633
105,ketchikan,55.3422,-131.6461,9.26,93,100,4.12,US,1714955633
106,thompson,55.7435,-97.8558,12.09,50,20,3.09,CA,1714955634
107,whistler,50.1164,-122.9695,7.57,100,100,2.57,CA,1714955634
108,dampit,-8.2116,112.7493,25.09,69,28,2.45,ID,1714955634
109,diego de almagro,-26.3667,-70.05,15.6,47,76,0.92,CL,1714955489
110,avarua,-21.2078,-159.775,27.03,94,100,4.63,CK,1714955634
111,nyagan,62.1406,65.3936,-13.05,99,54,2.01,RU,1714955635
112,gualeguaychu,-33.0094,-58.5172,19.15,89,100,2.41,AR,1714955635
113,bethel,41.3712,-73.414,10.2,88,100,0.0,US,1714955446
114,los altos,37.3852,-122.1141,17.55,50,0,7.72,US,1714955501
115,longyearbyen,78.2186,15.6401,-4.09,63,75,2.06,SJ,1714955589
116,bonthe,7.5264,-12.505,27.72,81,100,2.53,SL,1714955635
117,bridgewater,44.3835,-64.5155,6.82,81,100,5.66,CA,1714955636
118,kingston,17.997,-76.7936,28.53,74,40,6.17,JM,1714955636
119,thunder bay,48.4001,-89.3168,16.99,29,20,4.63,CA,1714955536
120,ylitornio,66.3089,23.6773,-7.57,96,36,1.99,FI,1714955636
121,ribeira grande,38.5167,-28.7,18.21,96,100,6.71,PT,1714955637
122,arraial do cabo,-22.9661,-42.0278,24.41,91,0,8.55,BR,1714955637
123,afaahiti,-17.75,-149.2833,30.93,82,9,10.25,PF,1714955637
124,dunedin,-45.8742,170.5036,8.22,68,8,2.68,NZ,1714955404
125,vilyuchinsk,52.9306,158.4028,9.15,64,85,1.02,RU,1714955637
126,kailua-kona,19.6406,-155.9956,27.98,73,75,4.63,US,1714955638
127,lages,-27.8161,-50.3261,16.94,95,0,1.14,BR,1714955638
128,notodden,59.5594,9.2585,11.51,87,100,0.45,NO,1714955638
129,new plymouth,-39.0667,174.0833,14.06,79,7,4.45,NZ,1714955639
130,beyneu,45.3167,55.2,17.3,45,100,4.36,KZ,1714955639
131,keflavik,64.0049,-22.5624,4.95,81,75,8.23,IS,1714955639
132,tokar,18.4254,37.729,25.42,68,0,1.78,SD,1714955639
133,yellowknife,62.456,-114.3525,14.12,53,40,5.14,CA,1714955593
134,kutno,52.2306,19.3641,13.94,93,62,3.52,PL,1714955640
135,richards bay,-28.783,32.0377,18.06,91,0,1.61,ZA,1714955640
136,yinchuan,38.4681,106.2731,17.41,40,0,2.09,CN,1714955640
137,itoman,26.1247,127.6694,29.21,83,40,7.72,JP,1714955640
138,jinchang,38.4953,102.1739,17.91,13,57,2.2,CN,1714955641
139,hammerfest,70.6634,23.6821,-0.75,74,100,4.12,NO,1714955641
140,tukums,56.9669,23.1553,8.64,77,100,3.97,LV,1714955642
141,ilulissat,69.2167,-51.1,-5.99,79,100,2.57,GL,1714955642
142,dudinka,69.4058,86.1778,-12.96,88,100,4.47,RU,1714955642
143,phan rang-thap cham,11.5667,108.9833,30.32,67,27,0.69,VN,1714955642
144,north bend,43.4065,-124.2243,12.36,71,75,8.23,US,1714955642
145,pangobilian,8.8011,117.8594,31.33,57,0,2.63,PH,1714955643
146,new norfolk,-42.7826,147.0587,14.4,55,61,0.86,AU,1714955643
147,laguna,38.421,-121.4238,19.52,39,40,3.6,US,1714955643
148,luderitz,-26.6481,15.1594,14.39,83,0,6.99,NA,1714955643
149,rapar,23.5667,70.6333,26.24,70,0,4.56,IN,1714955644
150,humaita,-7.5061,-63.0208,26.34,81,5,0.51,BR,1714955644
151,maraba,-5.3686,-49.1178,27.1,89,0,0.51,BR,1714955644
152,nemuro,43.3236,145.575,6.67,95,100,1.91,JP,1714955644
153,general pico,-35.6566,-63.7568,13.61,97,100,3.07,AR,1714955644
154,yigo village,13.5361,144.8886,30.62,64,75,5.66,GU,1714955645
155,tionk essil,12.7856,-16.5217,25.03,82,3,4.39,SN,1714955645
156,gadzhiyevo,69.2551,33.3362,-1.53,86,100,6.54,RU,1714955646
157,bredasdorp,-34.5322,20.0403,12.49,61,94,2.0,ZA,1714955646
158,bilibino,68.0546,166.4372,2.26,71,10,0.54,RU,1714955646
159,klaksvik,62.2266,-6.589,8.51,99,100,1.85,FO,1714955647
160,pandan,14.0453,124.1694,30.06,60,5,3.05,PH,1714955647
161,waddan,29.1614,16.139,18.89,38,39,3.72,LY,1714955647
162,eisen,36.8217,128.6308,17.17,85,98,4.18,KR,1714955648
163,college,64.8569,-147.8028,15.04,39,75,3.6,US,1714955648
164,emerald,-23.5333,148.1667,24.08,56,6,6.73,AU,1714955583
165,setif,36.1911,5.4137,15.45,48,0,1.54,DZ,1714955648
166,murzuq,25.9155,13.9184,25.01,19,100,5.55,LY,1714955446
167,konarka,19.9,86.1167,29.22,84,30,9.09,IN,1714955649
168,tura,25.5198,90.2201,22.51,83,63,0.9,IN,1714955649
169,mahibadhoo,3.7833,72.9667,29.47,78,97,5.57,MV,1714955649
170,cedeira,43.6797,-8.0209,12.21,82,22,5.14,ES,1714955649
171,gemena,3.25,19.7667,23.8,68,0,1.09,CD,1714955650
172,bayanhongor,46.7167,100.1167,10.39,24,0,0.5,MN,1714955650
173,cleator moor,54.5214,-3.5159,10.53,90,100,1.06,GB,1714955650
174,saldanha,-33.0117,17.9442,14.03,89,100,7.69,ZA,1714955650
175,bako,5.7833,36.5667,17.06,97,96,1.86,ET,1714955650
176,tazacorte,28.629,-17.9293,18.54,77,0,4.63,ES,1714955651
177,akjoujt,19.6969,-14.4164,28.54,12,0,3.72,MR,1714955651
178,nova era,-19.75,-43.0375,17.28,95,0,0.6,BR,1714955651
179,alva,56.1528,-3.8051,13.3,97,100,0.75,GB,1714955651
180,happy valley-goose bay,53.3168,-60.3315,13.17,54,75,3.6,CA,1714955651
181,minas de marcona,-15.2119,-75.1103,15.89,88,65,5.63,PE,1714955652
182,mozarlandia,-14.7447,-50.5706,25.42,53,0,2.48,BR,1714955652
183,rongelap,11.1635,166.8941,27.63,82,93,7.73,MH,1714955652
184,porto novo,17.0197,-25.0647,22.0,78,50,3.37,CV,1714955652
185,okha,53.5739,142.9478,2.92,65,17,3.58,RU,1714955653
186,hailey,43.5196,-114.3153,8.51,58,100,2.57,US,1714955428
187,leua,-11.65,20.45,16.1,61,5,1.54,AO,1714955653
188,port alfred,-33.5906,26.891,22.1,29,12,4.61,ZA,1714955653
189,badger,64.8,-147.5333,14.99,38,100,3.6,US,1714955553
190,stanley,54.868,-1.6985,11.4,96,75,2.57,GB,1714955654
191,lorengau,-2.0226,147.2712,29.46,79,100,3.07,PG,1714955654
192,kargil,34.5667,76.1,-0.02,54,4,1.57,IN,1714955654
193,huron,44.3633,-98.2143,19.01,42,0,8.75,US,1714955654
194,vorgashor,67.5833,63.95,-19.0,100,100,0.88,RU,1714955655
195,illizi,26.4833,8.4667,28.89,42,100,8.86,DZ,1714955655
196,castillos,-34.1667,-53.8333,18.52,98,100,1.45,UY,1714955656
197,aguilar de campoo,42.7945,-4.2589,6.63,98,100,1.95,ES,1714955656
198,santiago de la pena,20.95,-97.4,34.9,83,5,5.42,MX,1714955656
199,nuuk,64.1835,-51.7216,-3.66,63,0,7.2,GL,1714955656
200,acapulco de juarez,16.8634,-99.8901,28.9,74,0,4.12,MX,1714955603
201,imbituba,-28.24,-48.6703,24.92,93,0,2.95,BR,1714955657
202,kyren,51.6828,102.1408,13.3,50,100,1.34,RU,1714955657
203,lompoc,34.6391,-120.4579,17.1,62,0,10.29,US,1714955445
204,malanje,-9.5402,16.341,16.62,70,10,1.17,AO,1714955658
205,telfs,47.3,11.0667,14.91,91,44,2.55,AT,1714955658
206,puerto el triunfo,13.2833,-88.55,28.96,75,3,2.29,SV,1714955658
207,al khawr,25.6839,51.5058,27.94,59,8,2.21,QA,1714955658
208,presidente medici,-11.1753,-61.9014,24.42,90,33,0.6,BR,1714955659
209,klyuchi,52.2667,79.1667,6.21,60,0,4.5,RU,1714955659
210,zaragoza,41.6561,-0.8773,18.34,73,75,3.09,ES,1714955659
211,tubarjal,30.4999,38.216,17.28,50,0,5.29,SA,1714955659
212,calvinia,-31.4707,19.776,12.98,46,0,0.84,ZA,1714955659
213,bangar,16.8936,120.4243,31.09,66,5,2.85,PH,1714955660
214,north branch,45.5113,-92.9802,20.04,40,14,2.95,US,1714955660
215,freeport,40.6576,-73.5832,11.81,90,100,3.6,US,1714955555
216,santa rosa de viterbo,-21.4728,-47.3631,18.55,62,1,1.5,BR,1714955660
217,port blair,11.6667,92.75,27.02,89,93,1.03,IN,1714955660
218,salalah,17.0151,54.0924,29.05,84,75,2.06,OM,1714955661
219,khandyga,62.6667,135.6,1.82,100,100,1.59,RU,1714955661
220,alice springs,-23.7,133.8833,15.75,59,25,4.63,AU,1714955661
221,dubbo,-32.25,148.6167,17.07,63,25,3.6,AU,1714955661
222,luling,29.9322,-90.3665,27.21,78,75,3.09,US,1714955662
223,ofunato,39.0717,141.7167,18.01,64,100,3.41,JP,1714955662
224,ikongo,-21.8833,47.4333,18.09,90,96,0.72,MG,1714955662
225,ankazoabo,-22.2833,44.5167,17.96,61,0,2.0,MG,1714955662
226,cockburn town,21.4612,-71.1419,25.98,78,75,6.69,TC,1714955662
227,mount gambier,-37.8333,140.7667,15.66,59,0,4.46,AU,1714955663
228,kruisfontein,-34.0033,24.7314,17.2,24,0,3.54,ZA,1714955663
229,creel,27.75,-107.6333,17.71,13,41,7.46,MX,1714955663
230,port-gentil,-0.7193,8.7815,28.98,89,100,3.6,GA,1714955663
231,smithers,54.7804,-127.1743,11.18,82,100,0.0,CA,1714955405
232,bunda,-2.05,33.8667,18.18,95,81,2.19,TZ,1714955664
233,tampakan,6.4442,124.9264,29.16,64,29,1.84,PH,1714955664
234,kapuskasing,49.4169,-82.4331,12.05,62,75,4.12,CA,1714955665
235,hermanus,-34.4187,19.2345,13.78,74,5,4.74,ZA,1714955665
236,katsuura,35.1333,140.3,20.85,75,100,10.1,JP,1714955665
237,richlands,37.0932,-81.7937,20.03,88,100,1.54,US,1714955665
238,harper,4.375,-7.7169,26.24,88,74,1.42,LR,1714955665
239,zheleznodorozhnyy,55.7503,38.0042,4.09,71,8,5.81,RU,1714955666
240,sengkang,-4.1279,120.0297,23.9,96,100,0.85,ID,1714955666
241,inhambane,-23.865,35.3833,18.23,91,0,0.45,MZ,1714955667
242,pimenta bueno,-11.6725,-61.1936,26.48,81,100,0.59,BR,1714955668
243,calvia,39.5657,2.5062,17.27,70,100,2.83,ES,1714955668
244,sola,-13.8833,167.55,28.37,79,75,4.12,VU,1714955668
245,uturoa,-16.7333,-151.4333,28.08,78,5,8.58,PF,1714955669
246,energetik,51.7445,58.7934,2.33,57,0,2.87,RU,1714955669
247,krasnokamensk,50.0979,118.0369,13.81,28,100,2.11,RU,1714955669
248,moyamba,8.1667,-12.4333,25.29,93,100,0.97,SL,1714955670
249,kangaba,11.9333,-8.4167,31.39,13,26,1.16,ML,1714955670
250,hawaiian paradise park,19.5933,-154.9731,25.73,86,75,5.14,US,1714955670
251,puerto armuelles,8.2833,-82.8667,28.99,72,97,0.45,PA,1714955392
252,odienne,9.51,-7.5692,26.77,67,100,2.84,CI,1714955671
253,hotan,37.0997,79.9269,19.95,19,25,3.66,CN,1714955671
254,qarazhal,48.0078,70.7903,5.83,70,100,3.4,KZ,1714955671
255,fale old settlement,-9.3852,-171.2468,29.43,75,100,3.23,TK,1714955672
256,eraan,9.0629,117.7016,31.85,57,13,1.38,PH,1714955672
257,flying fish cove,-10.4217,105.6791,26.82,83,75,6.17,CX,1714955672
258,badiyah,22.45,58.8,29.43,55,10,2.74,OM,1714955673
259,yanchep,-31.55,115.6833,15.34,70,0,2.54,AU,1714955673
260,as sulayyil,20.4607,45.5779,28.14,51,0,2.44,SA,1714955673
261,vernon,50.2581,-119.2691,19.86,41,100,2.68,CA,1714955590
262,igarka,67.4667,86.5833,-0.55,91,100,5.81,RU,1714955674
263,bel ombre,-4.6167,55.4167,26.91,89,75,2.06,SC,1714955674
264,barcelos,41.5388,-8.6151,13.25,94,5,1.75,PT,1714955674
265,narok,-1.0783,35.8601,14.26,98,100,1.11,KE,1714955675
266,christchurch,-43.5333,172.6333,12.52,84,40,5.14,NZ,1714955675
267,kimberley,-28.7323,24.7623,11.83,66,0,2.06,ZA,1714955612
268,puerto colombia,10.9878,-74.9547,29.05,83,100,3.86,CO,1714955675
269,amahai,-3.3333,128.9167,30.11,76,92,0.83,ID,1714955675
270,olaine,56.7853,23.9381,8.98,66,0,4.63,LV,1714955676
271,al hazm,16.1641,44.7769,26.53,40,7,2.52,YE,1714955676
272,fort mcmurray,56.7268,-111.381,16.77,29,40,6.17,CA,1714955441
273,dhidhdhoo,6.8833,73.1,29.51,75,50,4.98,MV,1714955676
274,codrington,-38.2667,141.9667,15.81,61,15,6.58,AU,1714955676
275,sydney mines,46.2367,-60.2177,6.56,82,75,4.12,CA,1714955490
276,woolgoolga,-30.1106,153.2007,19.93,71,28,7.04,AU,1714955677
277,vadso,70.0744,29.7487,-0.51,74,100,9.26,NO,1714955677
278,chibougamau,49.9168,-74.3659,9.79,93,100,2.57,CA,1714955677
279,viedma,-40.8135,-62.9967,8.35,30,0,3.6,AR,1714955531
280,fort bragg,35.139,-79.006,23.85,86,40,0.0,US,1714955678
281,outjo,-20.1167,16.15,17.15,30,0,3.9,NA,1714955678
282,nova vicosa,-17.8919,-39.3719,25.09,88,0,3.82,BR,1714955679
283,mata-utu,-13.2816,-176.1745,29.3,78,100,5.09,WF,1714955679
284,constantia,-34.0314,18.4183,15.99,85,20,6.17,ZA,1714955679
285,cabo san lucas,22.8909,-109.9124,28.67,36,75,3.6,MX,1714955613
286,mahanoro,-19.9,48.8,20.28,87,100,1.15,MG,1714955680
287,nelson bay,-32.7167,152.15,20.06,86,97,0.89,AU,1714955680
288,kuta,-8.7233,115.1723,27.97,83,40,4.63,ID,1714955680
289,carmona,14.3,121.0167,30.37,82,55,4.9,PH,1714955681
290,puerto carreno,6.189,-67.4859,27.84,78,100,3.63,CO,1714955681
291,tinajo,29.0788,-13.7081,18.49,82,20,6.17,ES,1714955681
292,adrar,27.8743,-0.2939,25.14,11,0,5.14,DZ,1714955681
293,ar ruways,24.1103,52.7306,27.9,55,0,3.43,AE,1714955682
294,curillo,1.0333,-75.9191,22.36,100,100,0.32,CO,1714955682
295,bekes,46.7667,21.1333,12.21,87,100,3.37,HU,1714955682
296,nieuw amsterdam,5.8833,-55.0833,28.01,89,75,5.14,SR,1714955682
297,puerto baquerizo moreno,-0.9,-89.6,23.31,89,5,3.95,EC,1714955410
298,remire-montjoly,4.9167,-52.2667,27.02,94,100,1.03,GF,1714955683
299,esens,53.6487,7.6127,9.43,92,56,0.51,DE,1714955683
300,howrah,-42.8873,147.4055,14.71,67,75,5.66,AU,1714955683
301,rabo de peixe,37.8,-25.5833,17.77,99,75,3.6,PT,1714955683
302,exu,-7.5119,-39.7242,21.35,71,65,1.77,BR,1714955683
303,zinjibar,13.1287,45.3807,29.45,67,6,2.03,YE,1714955684
304,mutuali,-14.8706,37.0044,17.51,86,0,0.98,MZ,1714955684
305,shukat as sufi,31.26,34.2826,17.59,69,1,3.99,PS,1714955684
306,turbat,26.0023,63.044,28.56,41,0,0.83,PK,1714955684
307,tateyama,34.9833,139.8667,20.7,74,100,8.28,JP,1714955685
308,coquimbo,-29.9533,-71.3436,12.85,87,0,2.06,CL,1714955685
309,barra de santo antonio,-9.4047,-35.5072,25.6,83,89,5.77,BR,1714955685
310,peace river,56.2501,-117.286,18.17,34,40,6.69,CA,1714955685
311,manokwari,-0.8667,134.0833,27.79,74,99,0.84,ID,1714955685
312,madalena,41.2162,-8.3345,10.42,93,0,0.76,PT,1714955686
313,lycksele,64.5954,18.6735,0.93,75,100,1.54,SE,1714955686
314,juneau,58.3019,-134.4197,10.0,79,75,7.72,US,1714955495
315,newberry,34.2746,-81.6187,24.14,92,10,2.32,US,1714955686
316,shahrud,36.4182,54.9763,16.39,50,8,1.96,IR,1714955686
317,minot air force base,48.4209,-101.3391,21.05,41,20,11.32,US,1714955687
318,lata,40.1629,-8.3327,14.4,98,100,1.59,PT,1714955687
319,ambatofinandrahana,-20.55,46.8,10.48,97,15,1.89,MG,1714955687
320,argo,19.5167,30.4167,27.99,15,0,5.78,SD,1714955687
321,mount isa,-20.7333,139.5,22.87,35,9,4.12,AU,1714955421
322,maroantsetra,-15.4333,49.7333,22.32,99,91,0.07,MG,1714955688
323,skurup,55.4784,13.5019,9.84,100,75,2.06,SE,1714955688
324,antofagasta,-23.65,-70.4,14.6,84,39,2.41,CL,1714955688
325,ramhormoz,31.28,49.6035,25.52,42,30,3.2,IR,1714955689
326,san julian,21.0167,-102.1667,28.45,11,100,4.65,MX,1714955689
327,hoemul-li,41.4339,129.67,9.49,97,100,0.96,KP,1714955689
328,the bottom,17.6259,-63.2492,26.07,82,100,5.35,BQ,1714955689
329,nadi,-17.8,177.4167,30.0,74,75,5.14,FJ,1714955690
330,plettenberg bay,-34.0527,23.3716,15.66,28,0,1.58,ZA,1714955690
331,utete,-7.986,38.758,21.53,100,100,1.4,TZ,1714955690
332,urangan,-25.3,152.9,23.16,70,22,6.5,AU,1714955690
333,nadvoitsy,63.8667,34.3167,-7.62,97,17,2.32,RU,1714955691
334,villanueva,15.3167,-88.0,29.55,66,20,6.17,HN,1714955691
335,maintirano,-18.0667,44.0167,25.9,81,10,2.95,MG,1714955691
336,famagusta,35.125,33.95,15.61,83,11,5.5,CY,1714955403
337,takab,36.4009,47.1133,7.77,73,17,2.88,IR,1714955691
338,ponnani,10.767,75.9252,27.62,77,100,1.46,IN,1714955692
339,hirtshals,57.5881,9.9592,9.27,97,100,6.92,DK,1714955692
340,santa ana,33.7456,-117.8678,21.84,50,20,5.14,US,1714955624
341,luwuk,-0.9516,122.7875,26.31,86,60,0.5,ID,1714955693
342,taft,31.7471,54.2088,17.97,32,0,3.09,IR,1714955693
343,la mitra,8.8422,-79.7867,29.49,76,97,3.38,PA,1714955693
344,salgueiro,-8.0742,-39.1192,24.01,64,100,8.94,BR,1714955693
345,wewak,-3.5534,143.6268,27.31,86,100,2.53,PG,1714955693
346,ouadda,8.0777,22.4007,22.15,24,6,2.03,CF,1714955694
347,xinyuan,37.3,99.0,5.5,32,100,1.7,CN,1714955694
348,abu zabad,12.35,29.25,27.47,13,5,4.28,SD,1714955694
349,port hedland,-20.3167,118.5667,27.03,29,75,6.69,AU,1714955695
350,posto fiscal rolim de moura,-13.0833,-62.2667,27.93,68,71,0.97,BR,1714955695
351,cacoal,-11.4386,-61.4472,25.06,88,3,0.8,BR,1714955696
352,harstad,68.799,16.5293,1.2,90,8,9.39,NO,1714955696
353,marshfield,44.6689,-90.1718,18.97,37,0,1.54,US,1714955696
354,mezhdurechenskiy,59.6,65.9333,-5.27,91,20,1.74,RU,1714955696
355,tanakpur,29.0833,80.1167,27.04,23,0,2.21,IN,1714955697
356,gold camp,33.2937,-111.3043,26.73,30,25,12.26,US,1714955697
357,mandali,33.7499,45.5541,23.52,43,69,10.01,IQ,1714955697
358,margate,51.3813,1.3862,12.72,81,100,1.45,GB,1714955697
359,axim,4.8699,-2.2405,26.38,88,30,0.67,GH,1714955697
360,beau vallon,-20.4189,57.6953,24.13,69,40,5.14,MU,1714955698
361,polyarnyy,69.1989,33.4478,-1.76,84,100,6.93,RU,1714955698
362,lautoka,-17.6167,177.4667,29.92,74,75,5.14,FJ,1714955698
363,atamanovka,51.93,113.63,10.24,68,100,0.62,RU,1714955698
364,newman,37.3138,-121.0208,19.13,51,46,3.13,US,1714955698
365,westport,41.1415,-73.3579,11.29,91,100,2.57,US,1714955417
366,san patricio,19.2167,-104.7,25.06,83,75,5.14,MX,1714955699
367,ukiah,39.1502,-123.2078,16.35,39,0,6.69,US,1714955401
368,mahina,-17.5065,-149.489,31.87,48,20,6.17,PF,1714955589
369,ciudad manuel doblado,20.7333,-101.9333,30.02,15,100,6.26,MX,1714955699
370,mount pearl,47.5166,-52.7813,-0.86,90,20,2.57,CA,1714955616
371,phitsanulok,16.8248,100.2586,30.97,70,20,3.09,TH,1714955700
372,saudarkrokur,65.7461,-19.6394,3.07,74,0,5.69,IS,1714955700
373,mariehamn,60.0973,19.9348,7.92,57,0,4.63,AX,1714955700
374,hasaki,35.7333,140.8333,23.22,71,100,11.37,JP,1714955701
375,rikaze,29.25,88.8833,5.78,62,100,0.78,CN,1714955701
376,port-vila,-17.7338,168.3219,27.78,74,75,7.2,VU,1714955701
377,tonghae,37.5439,129.1069,15.79,89,100,4.23,KR,1714955702
378,moengo,5.6167,-54.4,25.11,91,100,0.9,SR,1714955702
379,keetmanshoop,-26.5833,18.1333,19.51,24,0,2.57,NA,1714955703
380,omura,32.9214,129.9539,19.91,93,75,5.14,JP,1714955703
381,xingcheng,40.6167,120.7167,17.94,39,100,8.46,CN,1714955703
382,kokshetau,53.2775,69.3883,2.23,57,0,3.66,KZ,1714955704
383,portland,45.5234,-122.6762,12.53,90,100,6.69,US,1714955456
384,alta,69.9689,23.2717,-0.41,74,100,4.12,NO,1714955449
385,markovo,57.3206,107.0881,14.87,60,80,3.26,RU,1714955704
386,otjimbingwe,-22.35,16.1333,20.11,23,0,3.47,NA,1714955705
387,kaiyuan,23.6977,103.3037,22.94,70,43,1.53,CN,1714955705
388,troitsko-pechorsk,62.7084,56.1964,-1.84,84,91,1.34,RU,1714955705
389,mejit,10.2753,170.8646,27.86,75,100,7.88,MH,1714955706
390,saipan,15.2123,145.7545,30.08,62,40,6.17,MP,1714955706
391,kabala,9.5833,-11.55,24.22,86,47,3.14,SL,1714955706
392,waingapu,-9.6567,120.2641,28.4,70,12,6.07,ID,1714955706
393,san martin,-33.081,-68.4681,13.3,46,0,4.23,AR,1714955707
394,mugia,43.1041,-9.2179,9.95,75,4,1.92,ES,1714955707
395,watsa,3.0372,29.5355,18.0,97,99,2.14,CD,1714955708
396,ixtapa,20.7,-105.2,26.24,73,100,5.14,MX,1714955708
397,guiren,33.6697,118.1889,20.15,72,55,3.57,CN,1714955708
398,sao felix do xingu,-6.6447,-51.995,23.88,88,38,1.18,BR,1714955708
399,hovd,48.0056,91.6419,18.4,14,5,2.64,MN,1714955709
400,challapata,-18.9,-66.7667,11.54,27,14,3.91,BO,1714955709
401,mala,-12.6581,-76.6308,19.17,91,89,1.01,PE,1714955709
402,kapit,2.0167,112.9333,27.12,80,100,0.38,MY,1714955709
403,nadym,65.5333,72.5167,-6.69,95,100,5.77,RU,1714955709
404,deniliquin,-35.5333,144.9667,18.64,41,0,3.68,AU,1714955710
405,guarapari,-20.6667,-40.4975,23.64,90,2,2.26,BR,1714955710
406,namtsy,62.7161,129.6658,8.95,57,99,4.21,RU,1714955710
407,ambon,-3.6954,128.1814,28.82,95,40,3.09,ID,1714955710
408,akureyri,65.6835,-18.0878,5.96,61,20,5.14,IS,1714955711
409,polatli,39.5772,32.1413,4.8,63,0,2.13,TR,1714955711
410,alofi,-19.0595,-169.9187,24.94,94,100,4.63,NU,1714955711
411,antalaha,-14.9003,50.2788,23.53,81,0,4.1,MG,1714955712
412,lazaro cardenas,17.9583,-102.2,25.95,72,93,3.0,MX,1714955712
413,yatou,37.15,122.3833,13.26,87,100,7.16,CN,1714955712
414,arpacay,40.8487,43.3291,4.8,87,100,1.15,TR,1714955712
415,mineiros,-17.5694,-52.5511,19.68,65,0,1.45,BR,1714955713
416,praia,14.9215,-23.5087,26.3,31,0,3.09,CV,1714955713
417,hilton head island,32.2163,-80.7526,25.06,76,0,5.14,US,1714955563
418,enoch,37.7733,-113.0244,3.04,86,100,5.14,US,1714955713
419,road town,18.4167,-64.6167,28.02,83,20,3.09,VG,1714955510
420,henryetta,35.4398,-95.9819,17.09,97,100,2.67,US,1714955714
421,calama,-22.4667,-68.9333,15.27,25,0,3.09,CL,1714955714
422,turpan,42.9333,89.1667,30.95,7,2,2.27,CN,1714955714
423,verkhnyaya sinyachikha,57.976,61.6673,-2.36,81,8,2.2,RU,1714955714
424,sassandra,4.95,-6.0833,26.06,87,80,1.23,CI,1714955715
425,pisco,-13.7,-76.2167,20.03,83,20,3.6,PE,1714955715
426,yaren,-0.5472,166.916,28.9,74,66,3.44,NR,1714955716
427,villa ojo de agua,-29.5,-63.6938,17.63,95,100,2.71,AR,1714955716
428,ghanzi,-21.5667,21.7833,16.19,45,0,2.22,BW,1714955716
429,puerto lempira,15.2667,-83.7667,30.08,70,20,4.12,HN,1714955717
430,boiling springs,35.0465,-81.9818,24.03,80,0,0.0,US,1714955717
431,golhisar,37.1459,29.5088,5.37,71,0,1.81,TR,1714955717
432,mahanje,-9.9333,35.3333,16.47,97,94,0.65,TZ,1714955717
433,toliara,-23.35,43.6667,23.7,70,0,1.12,MG,1714955717
434,qarqaraly,49.4058,75.4742,3.78,81,8,1.26,KZ,1714955718
435,holualoa,19.6228,-155.9522,25.91,73,75,4.63,US,1714955718
436,las vegas,36.175,-115.1372,20.06,13,0,5.66,US,1714955544
437,saint-philippe,-21.3585,55.7679,20.77,77,57,1.7,RE,1714955718
438,globe,33.3942,-110.7865,22.97,29,100,2.68,US,1714955719
439,noumea,-22.2763,166.4572,26.99,99,80,6.26,NC,1714955719
440,chamba,32.5667,76.1333,20.07,50,0,4.25,IN,1714955719
441,ocean shores,46.9737,-124.1563,11.64,90,100,8.75,US,1714955460
442,zaozersk,69.4005,32.4476,-1.87,97,100,3.22,RU,1714955720
443,tanumah,27.1,44.1333,25.83,17,2,5.95,SA,1714955720
444,vyritsa,59.4078,30.3481,1.41,84,12,1.27,RU,1714955720
445,veracruz,19.2,-96.1333,30.1,79,75,5.66,MX,1714955721
446,talnakh,69.4865,88.3972,-13.22,75,100,1.88,RU,1714955721
447,senillosa,-39.0,-68.4167,10.88,43,48,2.68,AR,1714955721
448,mar del plata,-38.0023,-57.5575,16.16,83,100,3.6,AR,1714955721
449,vila velha,-20.3297,-40.2925,25.97,89,75,2.06,BR,1714955722
450,velingara,13.15,-14.1167,29.6,34,0,4.18,SN,1714955722
451,victorica,-36.2151,-65.4359,10.52,92,0,3.75,AR,1714955722
452,ginir,7.1333,40.7,15.54,94,100,0.62,ET,1714955722
453,plastun,44.7561,136.2939,4.0,95,100,2.91,RU,1714955723
454,penzance,50.1186,-5.5371,11.53,89,100,3.62,GB,1714955723
455,santarem,-2.4431,-54.7083,26.07,94,0,2.06,BR,1714955723
456,itaituba,-4.2761,-55.9836,24.71,98,100,1.01,BR,1714955723
457,saynshand,44.8824,110.1163,16.09,19,4,3.92,MN,1714955723
458,szklarska poreba,50.8257,15.5227,10.47,93,100,0.94,PL,1714955724
459,zorritos,-3.6805,-80.6782,26.16,85,94,5.47,PE,1714955724
460,tamanrasset,22.785,5.5228,23.95,33,20,2.57,DZ,1714955724
461,canterbury,51.279,1.0799,12.78,93,46,0.22,GB,1714955724
462,freetown,8.484,-13.2299,27.84,74,40,6.17,SL,1714955724
463,veraval,20.9,70.3667,26.75,80,5,4.52,IN,1714955725
464,guanambi,-14.2233,-42.7814,23.6,72,14,5.37,BR,1714955725
465,mermoz boabab,14.7065,-17.4758,23.31,94,40,6.17,SN,1714955725
466,mirnyy,62.5353,113.9611,0.13,94,19,1.79,RU,1714955725
467,murashi,59.3999,48.9615,0.07,99,100,2.88,RU,1714955726
468,tindouf,27.6711,-8.1474,26.25,18,0,4.12,DZ,1714955726
469,makary,12.5717,14.4666,28.39,61,0,5.8,CM,1714955726
470,sachin,21.0833,72.8833,29.72,56,7,1.94,IN,1714955726
471,selkirk,50.1436,-96.8845,18.08,52,100,3.32,CA,1714955727
472,kolosovka,56.4678,73.611,0.98,71,6,4.45,RU,1714955727
473,garachico,28.7781,-17.7646,17.06,77,0,4.63,ES,1714955727
474,mindelo,16.8901,-24.9804,21.75,83,20,6.17,CV,1714955727
475,heihe,50.2441,127.4902,11.36,38,0,3.34,CN,1714955727
476,upata,8.0086,-62.3989,26.77,77,100,2.97,VE,1714955728
477,dzhalagash,45.0833,64.6667,13.63,66,100,2.96,KZ,1714955728
478,egilsstadir,65.2653,-14.3948,2.95,100,75,1.54,IS,1714955728
479,marsa alam,25.0757,34.8918,25.4,33,0,2.87,EG,1714955475
480,kenai,60.5544,-151.2583,8.03,71,100,6.17,US,1714955729
481,narvik,68.4384,17.4272,1.0,72,8,3.05,NO,1714955729
482,dryden,49.7833,-92.7503,14.16,38,20,2.57,CA,1714955730
483,ascoli satriano,41.2061,15.5615,12.69,82,7,3.27,IT,1714955730
484,berezovyy,51.6667,135.7,8.56,48,91,3.73,RU,1714955730
485,hinton,53.4001,-117.5857,13.97,48,97,3.57,CA,1714955730
486,dongola,19.1667,30.4833,28.07,15,0,3.96,SD,1714955731
487,merizo village,13.2658,144.6691,31.31,80,92,5.4,GU,1714955731
488,marat,25.0701,45.4615,26.03,49,0,7.11,SA,1714955731
489,vanimo,-2.6741,141.3028,31.02,66,73,1.58,PG,1714955731
490,bracciano,42.1031,12.1754,14.09,70,14,0.96,IT,1714955731
491,kalmunai,7.4167,81.8167,27.93,83,100,2.18,LK,1714955732
492,potchefstroom,-26.7167,27.1,13.24,37,100,2.03,ZA,1714955732
493,sechura,-5.5569,-80.8222,19.97,88,26,6.25,PE,1714955732
494,shakawe,-18.3667,21.85,16.52,40,2,3.16,BW,1714955732
495,kachug,53.9606,105.8817,15.53,42,68,2.89,RU,1714955733
496,smirnovo,54.5125,69.4222,1.41,64,1,2.57,KZ,1714955733
497,pizarro,4.9533,-77.366,28.03,79,100,2.44,CO,1714955733
498,prineville,44.2999,-120.8345,11.06,59,75,14.92,US,1714955462
499,san,13.3034,-4.8956,35.17,26,96,4.86,ML,1714955733
500,quepos,9.4236,-84.1652,27.78,81,72,1.95,CR,1714955734
501,palu,-0.8917,119.8707,26.75,95,100,0.44,ID,1714955734
502,afua,-0.1567,-50.3867,24.84,96,84,1.93,BR,1714955735
503,karratha,-20.7377,116.8463,27.96,28,0,5.11,AU,1714955735
504,bikenibeu village,1.3673,173.1241,30.98,74,75,1.54,KI,1714955735
505,ylivieska,64.0833,24.6667,-0.25,80,12,1.55,FI,1714955736
506,el granada,37.5027,-122.4694,16.27,63,0,10.29,US,1714955736
507,rio preto da eva,-2.6994,-59.6997,24.36,100,100,1.07,BR,1714955736
508,san ignacio,17.1561,-89.0714,37.08,36,0,3.09,BZ,1714955736
509,kiunga,-6.1219,141.2906,25.97,92,100,0.8,PG,1714955736
510,lagos,6.4531,3.3958,28.13,89,20,1.54,NG,1714955737
511,kuanda,56.3161,116.0806,13.83,48,9,0.91,RU,1714955737
512,pelabuhanratu,-6.9875,106.5514,26.93,79,0,1.95,ID,1714955737
513,barclayville,4.6797,-8.2339,26.04,90,53,0.95,LR,1714955737
514,demba,-5.51,22.2667,20.73,66,53,0.84,CD,1714955738
515,pindushi,62.9152,34.58,-3.28,95,20,1.82,RU,1714955738
516,cadale,2.7603,46.3222,25.91,87,100,4.55,SO,1714955738
517,nantucket,41.2835,-70.0995,9.08,94,100,6.69,US,1714955739
518,angaur state,6.906,134.13,28.49,70,97,4.99,PW,1714955739
519,pacocha,-17.5833,-71.3333,19.17,88,89,1.23,PE,1714955739
520,tralee,52.2704,-9.7026,8.68,97,56,1.31,IE,1714955739
521,ngambe,4.2333,10.6167,21.9,99,37,0.83,CM,1714955740
522,dorado,18.4588,-66.2677,28.1,95,100,2.68,PR,1714955740
523,ndele,8.4109,20.6473,25.6,28,0,1.45,CF,1714955740
524,xuddur,4.1213,43.8894,23.46,87,100,3.75,SO,1714955741
525,colonia,40.5746,-74.3021,12.52,87,100,2.06,US,1714955528
526,maues,-3.3836,-57.7186,24.71,98,100,1.35,BR,1714955741
527,sandnessjoen,66.0217,12.6316,8.06,53,0,3.09,NO,1714955741
528,belmonte,-15.8631,-38.8828,25.21,84,8,3.67,BR,1714955742
529,villa gesell,-37.2639,-56.973,17.25,94,100,5.4,AR,1714955742
530,daru,-9.0763,143.2092,26.8,87,100,7.83,PG,1714955742
531,macau,22.2006,113.5461,26.89,89,40,1.03,MO,1714955742
532,turan,16.0678,108.2208,27.99,83,40,1.03,VN,1714955743
