City_ID,City,Lat,Lng,Max Temp,Humidity,Cloudiness,Wind Speed,Country,Date
0,bethel,41.3712,-73.414,10.76,89,100,0.45,US,1714967521
1,invercargill,-46.4,168.35,9.45,62,65,4.47,NZ,1714967522
2,ushuaia,-54.8,-68.3,2.81,93,100,5.14,AR,1714967522
3,madaoua,14.073,5.96,29.38,19,0,3.17,NE,1714967523
4,port mathurin,-19.6833,63.4167,26.25,60,1,8.86,MU,1714967523
5,tindouf,27.6711,-8.1474,22.25,21,0,4.63,DZ,1714967523
6,lorengau,-2.0226,147.2712,29.54,77,100,4.26,PG,1714967523
7,grytviken,-54.2811,-36.5092,1.95,84,37,2.73,GS,1714967524
8,aykhal,66.0,111.5,0.02,94,100,5.01,RU,1714967524
9,matoury,4.8483,-52.3317,25.98,100,75,1.54,GF,1714967524
10,waitangi,-43.9535,-176.5597,13.23,82,67,2.24,NZ,1714967524
11,jamestown,42.097,-79.2353,16.68,97,100,3.09,US,1714967525
12,adamstown,-25.066,-130.1015,21.72,69,62,9.41,PN,1714967525
13,noumea,-22.2763,166.4572,26.67,99,62,7.31,NC,1714967525
14,margaret river,-33.95,115.0667,19.89,58,37,3.79,AU,1714967526
15,susuman,62.7833,148.1667,0.55,61,83,1.34,RU,1714967526
16,bima,-8.4667,118.7167,31.78,59,20,2.88,ID,1714967526
17,port-aux-francais,-49.35,70.2167,6.15,83,89,11.93,TF,1714967526
18,albany,42.6526,-73.7562,12.21,94,100,4.12,US,1714967527
19,talnakh,69.4865,88.3972,-5.44,66,100,1.7,RU,1714967527
20,kerikeri,-35.2268,173.9474,18.28,85,67,0.45,NZ,1714967527
21,wafangdian,39.6183,122.0081,13.71,66,100,7.75,CN,1714967528
22,yuzhno-kurilsk,44.0306,145.8556,9.1,92,100,3.69,RU,1714967528
23,bredasdorp,-34.5322,20.0403,11.86,60,94,3.22,ZA,1714967528
24,puerto ayora,-0.7393,-90.3518,23.08,97,48,0.45,EC,1714967528
25,el calafate,-50.3408,-72.2768,-3.47,62,1,2.36,AR,1714967529
26,chegdomyn,51.1167,133.0167,13.78,29,3,3.66,RU,1714967529
27,pisco,-13.7,-76.2167,19.03,88,66,1.54,PE,1714967529
28,amga,60.8953,131.9608,11.92,45,60,2.53,RU,1714967530
29,souillac,-20.5167,57.5167,24.21,78,40,5.14,MU,1714967530
30,coquimbo,-29.9533,-71.3436,11.85,82,0,2.06,CL,1714967530
31,siguiri,11.4228,-9.1685,29.62,43,82,4.37,GN,1714967530
32,kudahuvadhoo,2.6708,72.8944,29.57,75,89,4.43,MV,1714967530
33,ronneby,56.21,15.276,9.28,100,100,1.54,SE,1714967531
34,mermoz boabab,14.7065,-17.4758,22.88,94,75,6.17,SN,1714967531
35,anadyr,64.75,177.4833,-1.72,64,0,3.0,RU,1714967531
36,kalat,29.0225,66.5916,19.93,28,0,6.62,PK,1714967531
37,iqaluit,63.7506,-68.5145,-3.15,80,100,4.63,CA,1714967532
38,stanley,54.868,-1.6985,10.71,97,75,1.03,GB,1714967532
39,kuanda,56.3161,116.0806,18.11,36,54,1.08,RU,1714967532
40,sisimiut,66.9395,-53.6735,-9.18,89,62,3.86,GL,1714967532
41,avarua,-21.2078,-159.775,27.03,89,75,7.72,CK,1714967471
42,torghay,49.6339,63.4981,12.56,36,69,3.9,KZ,1714967533
43,bilibino,68.0546,166.4372,0.47,77,11,1.01,RU,1714967533
44,hawaiian paradise park,19.5933,-154.9731,22.8,86,100,6.17,US,1714967533
45,gadzhiyevo,69.2551,33.3362,-1.19,73,100,8.91,RU,1714967533
46,tura,25.5198,90.2201,32.0,46,16,1.62,IN,1714967533
47,cabo san lucas,22.8909,-109.9124,27.17,31,100,4.12,MX,1714967319
48,bamyan,34.8242,67.8217,9.76,60,5,2.42,AF,1714967534
49,longyearbyen,78.2186,15.6401,-4.09,68,75,1.54,SJ,1714967534
50,blackmans bay,-43.0167,147.3167,15.41,58,29,0.45,AU,1714967534
51,bilozerka,46.6248,32.4425,11.8,62,33,3.86,UA,1714967535
52,nova vicosa,-17.8919,-39.3719,24.42,89,3,1.98,BR,1714967535
53,qusmuryn,52.4503,64.6311,9.19,45,0,6.34,KZ,1714967535
54,san casciano in val di pesa,43.6591,11.1895,12.37,93,0,0.51,IT,1714967535
55,georgetown,6.8045,-58.1553,27.16,85,100,2.07,GY,1714967536
56,aasiaat,68.7098,-52.8699,-14.91,97,83,2.63,GL,1714967536
57,lebu,-37.6167,-73.65,10.69,79,94,7.15,CL,1714967536
58,yellowknife,62.456,-114.3525,10.31,71,20,5.66,CA,1714967505
59,portland,45.5234,-122.6762,10.96,88,100,3.09,US,1714967457
60,prince rupert,54.3161,-130.3201,6.83,93,100,6.69,CA,1714967537
61,puerto natales,-51.7236,-72.4875,-1.97,87,71,1.66,CL,1714967537
62,saint-philippe,-21.3585,55.7679,21.77,76,24,5.43,RE,1714967537
63,tazacorte,28.629,-17.9293,18.54,77,75,5.14,ES,1714967537
64,carutapera,-1.195,-46.02,25.3,96,100,4.59,BR,1714967538
65,port elizabeth,-33.918,25.5701,21.29,39,0,3.09,ZA,1714967538
66,hasaki,35.7333,140.8333,22.38,72,93,11.43,JP,1714967538
67,nagqu,31.5,92.0,4.55,37,100,1.67,CN,1714967539
68,selfoss,63.9331,-20.9971,2.8,76,91,6.31,IS,1714967539
69,port alfred,-33.5906,26.891,22.36,39,21,5.28,ZA,1714967539
70,old town,44.9342,-68.6453,7.43,95,100,0.45,US,1714967540
71,lodwar,3.1191,35.5973,27.31,67,100,1.08,KE,1714967540
72,eastham,41.8301,-69.9739,9.99,95,100,2.57,US,1714967540
73,kidal,18.4411,1.4078,32.99,19,76,4.74,ML,1714967541
74,liberal,37.0431,-100.921,16.58,76,0,8.75,US,1714967541
75,tiksi,71.6872,128.8694,0.17,90,46,2.28,RU,1714967541
76,ancud,-41.8697,-73.8203,9.1,84,93,8.29,CL,1714967541
77,codrington,-38.2667,141.9667,16.08,62,7,6.53,AU,1714967541
78,gargalianoi,37.0667,21.6333,14.09,70,0,1.91,GR,1714967542
79,sharlyk,52.9167,54.75,6.86,52,89,11.05,RU,1714967542
80,ixtapa,20.7,-105.2,25.13,81,100,0.89,MX,1714967542
81,hithadhoo,-0.6,73.0833,29.77,75,33,4.81,MV,1714967542
82,kavaratti,10.5669,72.642,29.53,67,40,2.2,IN,1714967542
83,pandan,14.0453,124.1694,30.89,58,67,5.5,PH,1714967543
84,wailua homesteads,22.0669,-159.378,27.24,79,40,8.75,US,1714967543
85,shar,49.5886,81.0453,10.28,59,100,4.06,KZ,1714967543
86,jinchang,38.4953,102.1739,22.11,13,24,5.55,CN,1714967353
87,okha,53.5739,142.9478,2.92,65,43,3.58,RU,1714967544
88,badger,64.8,-147.5333,14.95,37,100,6.69,US,1714967544
89,westport,41.1415,-73.3579,12.27,92,100,2.06,US,1714967544
90,mar del plata,-38.0023,-57.5575,14.01,79,0,6.69,AR,1714967544
91,bayanhongor,46.7167,100.1167,14.28,18,1,2.03,MN,1714967545
92,sur,22.5667,59.5289,33.3,49,9,4.16,OM,1714967545
93,kill devil hills,36.0307,-75.676,22.21,80,0,8.75,US,1714967545
94,abalak,58.1286,68.5944,0.75,72,13,3.61,RU,1714967545
95,port macquarie,-31.4333,152.9167,18.27,85,91,8.69,AU,1714967546
96,yung shue wan,22.2333,114.1167,30.45,79,100,1.11,HK,1714967546
97,puerto baquerizo moreno,-0.9,-89.6,22.92,88,38,3.16,EC,1714967546
98,magdagachi,53.45,125.8,18.74,24,78,0.11,RU,1714967546
99,simod,7.4758,125.3408,31.16,48,58,3.05,PH,1714967547
100,hamilton,43.2334,-79.9496,14.25,83,20,2.06,CA,1714967547
101,tual,-5.6667,132.75,27.64,84,100,5.64,ID,1714967547
102,medicine hat,50.0501,-110.6683,14.61,55,100,3.09,CA,1714967271
103,labytnangi,66.6572,66.4183,-7.85,81,38,2.6,RU,1714967547
104,east london,-33.0153,27.9116,22.52,40,0,5.14,ZA,1714967547
105,olonkinbyen,70.9221,-8.7187,0.96,89,100,12.84,SJ,1714967548
106,utrik,11.2278,169.8474,27.5,79,84,7.09,MH,1714967548
107,kolonia,6.964,158.2062,31.06,84,100,5.66,FM,1714967548
108,west island,-12.1568,96.8225,28.99,70,40,6.69,CC,1714967548
109,peace river,56.2501,-117.286,14.17,38,40,4.12,CA,1714967549
110,conduaga,8.862,117.4893,33.7,53,44,4.21,PH,1714967549
111,taroa,8.7058,171.2275,28.14,80,100,8.23,MH,1714967549
112,tralee,52.2704,-9.7026,9.56,97,76,1.3,IE,1714967550
113,queenstown,-31.8976,26.8753,13.19,43,1,2.94,ZA,1714967550
114,kharagpur,22.3333,87.3333,36.47,42,77,5.48,IN,1714967550
115,kabalo,-6.05,26.9167,20.19,82,95,1.69,CD,1714967550
116,hami,42.8,93.45,32.04,4,100,8.05,CN,1714967551
117,kodiak,57.79,-152.4072,5.73,81,100,7.2,US,1714967551
118,daru,-9.0763,143.2092,26.34,86,100,6.4,PG,1714967551
119,pacific grove,36.6177,-121.9166,11.52,78,0,3.13,US,1714967551
120,sitka,57.0531,-135.33,7.94,66,75,2.06,US,1714967552
121,klyuchi,52.2667,79.1667,9.51,38,0,5.11,RU,1714967552
122,hermanus,-34.4187,19.2345,13.88,74,28,4.7,ZA,1714967552
123,chota,-6.55,-78.65,13.53,90,93,2.08,PE,1714967552
124,enewetak,11.3474,162.3373,27.74,75,31,7.25,MH,1714967553
125,san patricio,19.2167,-104.7,21.52,89,100,1.32,MX,1714967553
126,egilsstadir,65.2653,-14.3948,3.95,75,75,5.14,IS,1714967554
127,pirna,50.9584,13.937,11.81,92,98,1.44,DE,1714967554
128,nyurba,63.2842,118.3319,1.46,97,100,1.58,RU,1714967554
129,alice springs,-23.7,133.8833,19.75,42,16,6.17,AU,1714967554
130,mendefera,14.8872,38.8153,19.57,32,14,2.05,ER,1714967554
131,edinburgh of the seven seas,-37.0676,-12.3116,13.74,64,86,14.0,SH,1714967555
132,nogliki,51.8333,143.1667,1.3,75,32,5.36,RU,1714967555
133,raymondville,26.4815,-97.7831,27.83,84,18,5.48,US,1714967555
134,fort st. john,56.2499,-120.8529,14.94,26,40,6.69,CA,1714967555
135,carnarvon,-24.8667,113.6333,23.97,44,0,8.51,AU,1714967555
136,rawson,-43.3002,-65.1023,8.69,40,70,5.98,AR,1714967556
137,whitehorse,60.7161,-135.0538,6.56,87,100,5.66,CA,1714967353
138,cristalina,-16.7686,-47.6136,16.65,81,0,2.73,BR,1714967556
139,caucete,-31.6518,-68.2811,14.3,74,0,3.38,AR,1714967556
140,port hedland,-20.3167,118.5667,34.03,24,40,7.2,AU,1714967557
141,carauari,-4.8828,-66.8958,24.13,98,65,0.61,BR,1714967557
142,vorgashor,67.5833,63.95,-12.57,94,100,1.5,RU,1714967557
143,jindabyne,-36.4167,148.6333,12.54,67,91,1.34,AU,1714967557
144,illizi,26.4833,8.4667,25.89,38,100,4.74,DZ,1714967558
145,kone,-21.0595,164.8658,27.04,51,91,3.2,NC,1714967558
146,idri,27.5,13.2667,22.65,28,80,6.27,LY,1714967558
147,nuuk,64.1835,-51.7216,-4.66,74,1,8.23,GL,1714967558
148,al kharijah,25.4514,30.5464,19.65,26,0,2.81,EG,1714967559
149,brokopondo,5.0667,-54.9667,26.56,99,100,0.81,SR,1714967559
150,mahina,-17.5065,-149.489,29.87,58,40,6.17,PF,1714967559
151,lihue,21.9789,-159.3672,27.58,73,40,8.75,US,1714967560
152,eyl,7.9803,49.8164,28.34,77,100,2.18,SO,1714967560
153,port lincoln,-34.7333,135.8667,16.79,70,1,4.68,AU,1714967560
154,broome,-17.9667,122.2333,33.97,33,79,3.6,AU,1714967560
155,bayt al faqih,14.5164,43.3245,29.18,72,68,1.62,YE,1714967560
156,saint-leu,-21.15,55.2833,22.46,56,0,2.14,RE,1714967561
157,rovaniemi,66.5,25.7167,-0.33,59,100,3.6,FI,1714967561
158,vilyuchinsk,52.9306,158.4028,8.15,70,50,3.09,RU,1714967561
159,urengoy,65.9667,78.3667,-4.17,92,97,6.91,RU,1714967561
160,new norfolk,-42.7826,147.0587,16.07,48,40,0.99,AU,1714967562
161,ust-nera,64.5667,143.2,3.56,73,96,1.81,RU,1714967562
162,griffith,41.5284,-87.4237,11.7,86,0,0.0,US,1714967562
163,karratha,-20.7377,116.8463,32.32,21,0,4.94,AU,1714967562
164,necochea,-38.5473,-58.7368,14.1,49,100,3.97,AR,1714967562
165,iskateley,67.6803,53.1512,-7.21,88,90,1.79,RU,1714967563
166,cannonvale,-20.2833,148.7,22.55,79,96,5.3,AU,1714967563
167,paphos,34.7667,32.4167,14.88,82,20,3.6,CY,1714967563
168,vadso,70.0744,29.7487,-0.51,86,100,7.2,NO,1714967564
169,santana,-0.0583,-51.1817,27.1,89,0,1.54,BR,1714967564
170,saipan,15.2123,145.7545,32.08,55,40,7.2,MP,1714967564
171,atafu village,-8.5421,-172.5159,29.76,74,21,2.78,TK,1714967565
172,sibolga,1.7427,98.7792,30.66,69,5,2.07,ID,1714967565
173,marquette,46.5435,-87.3954,8.54,80,6,2.72,US,1714967565
174,mount gambier,-37.8333,140.7667,17.95,49,0,4.5,AU,1714967565
175,tamanrasset,22.785,5.5228,25.95,24,20,6.69,DZ,1714967565
176,poronaysk,49.2167,143.1167,1.79,88,100,4.92,RU,1714967566
177,newman,37.3138,-121.0208,14.13,72,29,1.92,US,1714967566
178,quepos,9.4236,-84.1652,27.27,83,96,2.21,CR,1714967566
179,venosa,40.9613,15.8149,8.56,77,0,2.63,IT,1714967567
180,pahrump,36.2083,-115.9839,14.03,16,2,0.89,US,1714967549
181,xingcheng,40.6167,120.7167,20.77,32,100,10.19,CN,1714967567
182,fort bragg,35.139,-79.006,21.32,93,100,1.34,US,1714967567
183,north bend,43.4065,-124.2243,10.48,87,100,5.66,US,1714967567
184,kapuskasing,49.4169,-82.4331,8.05,71,100,2.57,CA,1714967568
185,porto novo,17.0197,-25.0647,22.0,79,61,3.49,CV,1714967568
186,acapulco de juarez,16.8634,-99.8901,26.9,83,20,3.09,MX,1714967568
187,tomah,43.9786,-90.504,9.86,93,0,0.0,US,1714967568
188,yonan-up,37.9089,126.1611,11.99,94,100,5.89,KP,1714967568
189,vado ligure,44.2691,8.4338,16.32,88,100,2.36,IT,1714967569
190,carupano,10.6678,-63.2585,25.83,90,62,2.52,VE,1714967569
191,dunedin,-45.8742,170.5036,9.33,67,40,4.92,NZ,1714967569
192,ghadamis,30.1337,9.5007,22.85,23,88,6.34,LY,1714967569
193,le port,-20.9373,55.2919,22.98,60,0,2.33,RE,1714967570
194,valparaiso,-33.0393,-71.6273,11.8,66,0,0.0,CL,1714967570
195,cuichapa,18.7667,-96.8667,26.97,64,100,1.68,MX,1714967570
196,vorkuta,67.5,64.0,-12.34,94,100,1.5,RU,1714967570
197,nicoya,10.1483,-85.452,26.99,81,43,1.38,CR,1714967571
198,el nido,11.1858,119.3956,31.35,62,41,4.01,PH,1714967571
199,buala,-8.145,159.5921,29.78,73,63,1.92,SB,1714967571
200,kachug,53.9606,105.8817,22.25,25,99,5.36,RU,1714967571
201,piton saint-leu,-21.2196,55.3151,21.04,49,0,2.57,RE,1714967571
202,keflavik,64.0049,-22.5624,3.95,87,75,6.17,IS,1714967572
203,san juan bautista,-14.0108,-75.7358,20.52,77,85,1.11,PE,1714967572
204,llallagua,-18.4167,-66.6333,6.92,33,48,2.09,BO,1714967572
205,melipilla,-33.7,-71.2167,5.45,75,99,0.47,CL,1714967572
206,bizerte,37.2744,9.8739,15.0,72,0,0.0,TN,1714967573
207,college,64.8569,-147.8028,14.99,41,75,6.69,US,1714967573
208,konarka,19.9,86.1167,33.22,72,33,8.65,IN,1714967573
209,saint-jean-de-monts,46.7833,-2.0667,12.44,77,31,10.55,FR,1714967573
210,waingapu,-9.6567,120.2641,30.16,64,21,6.31,ID,1714967574
211,napili-honokowai,20.9708,-156.6705,26.51,80,95,7.69,US,1714967574
212,reggane,26.7158,0.1714,26.97,11,0,6.2,DZ,1714967574
213,totskoye,52.5248,52.7623,5.5,73,100,10.19,RU,1714967574
214,polyarnyy,69.1989,33.4478,-1.27,71,100,9.06,RU,1714967575
215,ambovombe,-25.1667,46.0833,18.12,76,0,2.63,MG,1714967575
216,yemetsk,63.4721,41.7941,-1.16,71,30,2.62,RU,1714967575
217,ola,59.5833,151.2833,3.41,73,27,1.7,RU,1714967575
218,tandil,-37.3217,-59.1332,10.94,89,100,4.18,AR,1714967576
219,vuktyl,63.8567,57.3094,-1.46,83,68,1.2,RU,1714967576
220,gandorhun,7.5,-11.8333,25.87,92,100,0.65,SL,1714967576
221,lafia,8.4833,8.5167,25.09,85,86,1.47,NG,1714967577
222,banamba,13.55,-7.45,28.45,12,47,3.77,ML,1714967577
223,temiskaming shores,47.4938,-79.7153,11.89,84,30,2.13,CA,1714967577
224,ilulissat,69.2167,-51.1,-5.99,73,100,5.14,GL,1714967577
225,nadvoitsy,63.8667,34.3167,-3.4,89,35,3.12,RU,1714967578
226,yangambi,0.8102,24.4336,22.18,81,21,1.65,CD,1714967578
227,guerrero negro,27.9769,-114.0611,15.76,84,16,8.78,MX,1714967578
228,najran,17.4924,44.1277,22.36,28,1,2.74,SA,1714967578
229,loukhi,66.0764,33.0381,-1.42,82,76,4.0,RU,1714967579
230,fort mcmurray,56.7268,-111.381,13.77,38,100,2.06,CA,1714967579
231,zouerate,22.7187,-12.4521,24.31,11,10,3.85,MR,1714967579
232,mount isa,-20.7333,139.5,27.87,32,35,4.63,AU,1714967579
233,okhotsk,59.3833,143.3,4.43,76,36,3.38,RU,1714967580
234,kununurra,-15.7667,128.7333,31.99,33,40,5.66,AU,1714967580
235,mitu,1.1983,-70.1733,22.29,100,100,1.39,CO,1714967580
236,nyaunglebin,17.95,96.7333,37.37,31,27,3.91,MM,1714967580
237,murzuq,25.9155,13.9184,24.25,27,100,4.7,LY,1714967581
238,bodo,67.28,14.405,5.43,69,0,9.26,NO,1714967581
239,constantia,-34.0314,18.4183,16.12,83,40,9.26,ZA,1714967581
240,thunder bay,48.4001,-89.3168,6.99,65,0,0.0,CA,1714967581
241,gizo,-8.103,156.8419,29.29,74,82,0.58,SB,1714967582
242,auki,-8.7676,160.7034,29.92,74,99,1.12,SB,1714967582
243,ribeira grande,38.5167,-28.7,18.76,96,100,8.49,PT,1714967582
244,batticaloa,7.7102,81.6924,31.05,69,76,3.04,LK,1714967414
245,port isabel,26.0734,-97.2086,27.02,90,100,9.77,US,1714967582
246,brookings,44.3114,-96.7984,13.99,69,0,5.66,US,1714967583
247,san rafael del sur,11.8485,-86.4384,29.54,71,13,1.37,NI,1714967583
248,alesund,62.4723,6.1549,8.84,99,100,3.6,NO,1714967583
249,guatire,10.4762,-66.5427,23.09,95,73,0.47,VE,1714967583
250,ouled mimoun,34.9047,-1.0339,14.01,36,100,1.37,DZ,1714967583
251,vysokovsk,56.3167,36.55,-0.36,83,84,2.28,RU,1714967584
252,wotje,9.4543,170.2367,28.03,78,100,8.03,MH,1714967584
253,rakops,-21.0167,24.3333,16.5,40,0,2.24,BW,1714967584
254,punta arenas,-53.15,-70.9167,2.06,69,0,3.6,CL,1714967585
255,port douglas,-16.4833,145.4667,26.32,71,100,4.9,AU,1714967585
256,malangali,-8.5667,34.85,17.28,90,89,3.21,TZ,1714967585
257,shima,24.4478,117.8111,29.01,57,90,1.78,CN,1714967586
258,smolensk,54.7817,32.04,9.73,65,96,3.13,RU,1714967586
259,tadif,36.3481,37.5309,13.07,75,93,2.57,SY,1714967587
260,qarauyl,48.9451,79.255,8.54,60,100,4.23,KZ,1714967587
261,torit,4.4133,32.5678,23.57,66,80,1.93,SS,1714967587
262,oppdal,62.5943,9.6912,8.34,91,100,3.31,NO,1714967587
263,wesselsbron,-27.8549,26.3658,12.93,39,2,1.7,ZA,1714967588
264,dawei,14.0833,98.2,34.21,52,10,4.57,MM,1714967588
265,qaqortoq,60.7167,-46.0333,-0.88,65,0,2.3,GL,1714967588
266,ar ruways,24.1103,52.7306,30.02,41,0,3.39,AE,1714967588
267,camabatela,-8.1881,15.375,16.73,64,100,1.7,AO,1714967589
268,port moresby,-9.4431,147.1797,30.68,70,40,5.14,PG,1714967589
269,kailua-kona,19.6406,-155.9956,26.98,80,75,4.12,US,1714967589
270,northam,51.0333,-4.2167,9.66,91,95,1.09,GB,1714967589
271,arraial do cabo,-22.9661,-42.0278,24.21,89,77,9.21,BR,1714967590
272,cartagena,10.3997,-75.5144,28.79,84,40,2.57,CO,1714967590
273,bojonegoro,-7.1502,111.8817,29.75,62,25,3.71,ID,1714967590
274,aripuana,-9.1667,-60.6333,25.9,85,64,0.41,BR,1714967590
275,katsuura,35.1333,140.3,20.61,77,100,9.58,JP,1714967590
276,caleta de carquin,-11.0925,-77.6267,19.26,90,66,3.86,PE,1714967591
277,portage la prairie,49.9728,-98.2926,11.17,54,99,5.1,CA,1714967591
278,calvinia,-31.4707,19.776,12.75,43,0,1.97,ZA,1714967591
279,gemena,3.25,19.7667,22.75,70,0,0.53,CD,1714967592
280,thompson,55.7435,-97.8558,6.09,70,20,1.54,CA,1714967592
281,richards bay,-28.783,32.0377,17.8,78,0,2.15,ZA,1714967592
282,kavieng,-2.5744,150.7967,29.88,69,100,1.63,PG,1714967592
283,maryborough,-25.5333,152.7,24.18,61,40,4.1,AU,1714967592
284,alice town,25.7167,-79.3,25.28,70,0,8.06,BS,1714967593
285,troy,42.6056,-83.1499,13.23,76,0,0.0,US,1714967593
286,horsham,51.064,-0.3272,11.25,86,20,1.54,GB,1714967593
287,valley city,46.9233,-98.0032,13.29,62,0,6.17,US,1714967593
288,kenai,60.5544,-151.2583,8.41,71,100,5.14,US,1714967594
289,flying fish cove,-10.4217,105.6791,28.82,78,75,6.17,CX,1714967594
290,charters towers,-20.1,146.2667,28.61,37,75,4.46,AU,1714967594
291,leh,34.1667,77.5833,1.01,58,10,1.1,IN,1714967458
292,axim,4.8699,-2.2405,27.3,85,73,2.15,GH,1714967595
293,barakani,-12.1356,44.4317,27.24,76,100,6.11,KM,1714967595
294,monrovia,6.3005,-10.7969,26.13,86,100,3.92,LR,1714967595
295,majuro,7.0897,171.3803,27.98,89,100,8.23,MH,1714967595
296,afaahiti,-17.75,-149.2833,28.93,87,47,9.62,PF,1714967596
297,naifaru,5.4444,73.3657,29.67,78,100,4.16,MV,1714967596
298,bel ombre,-4.6167,55.4167,25.91,89,75,7.72,SC,1714967596
299,rikaze,29.25,88.8833,11.46,34,100,0.29,CN,1714967596
300,tshikapa,-6.4167,20.8,21.14,67,35,1.32,CD,1714967596
301,floro,61.5996,5.0328,9.04,93,100,0.51,NO,1714967597
302,holualoa,19.6228,-155.9522,24.91,80,75,4.12,US,1714967597
303,chernyshevskiy,63.0128,112.4714,2.41,99,100,3.88,RU,1714967597
304,laguna,38.421,-121.4238,15.25,58,0,6.17,US,1714967597
305,hovd,48.0056,91.6419,25.52,6,8,2.98,MN,1714967598
306,atlantis,-33.5667,18.4834,15.53,82,68,5.21,ZA,1714967598
307,cockburn town,21.4612,-71.1419,25.37,85,95,9.63,TC,1714967598
308,moose jaw,50.4001,-105.5344,16.14,41,100,7.2,CA,1714967598
309,cooma,-36.2333,149.1333,13.24,57,100,2.72,AU,1714967598
310,ulladulla,-35.35,150.4667,17.76,63,52,5.88,AU,1714967599
311,dauphin,51.1494,-100.0502,13.08,50,0,6.17,CA,1714967599
312,crane,31.3974,-102.3501,22.34,78,4,6.09,US,1714967599
313,guarapari,-20.6667,-40.4975,24.15,87,28,1.85,BR,1714967600
314,cabinda,-5.55,12.2,26.08,94,100,1.54,AO,1714967600
315,yashan,22.1975,109.9419,27.74,81,100,1.92,CN,1714967600
316,ataq,14.5377,46.8319,23.88,75,28,4.76,YE,1714967600
317,haiku-pauwela,20.9219,-156.3051,25.01,67,20,9.26,US,1714967600
318,tsengel,49.4783,100.8894,19.92,24,58,2.76,MN,1714967601
319,tokmak,47.2514,35.7058,9.53,53,39,3.02,UA,1714967601
320,hopkinsville,36.8656,-87.4886,20.04,66,100,2.53,US,1714967601
321,cill airne,52.05,-9.5167,7.72,98,68,1.23,IE,1714967601
322,vernon,50.2581,-119.2691,17.34,41,100,2.06,CA,1714967602
323,chonchi,-42.6128,-73.8092,5.62,97,97,1.07,CL,1714967602
324,luderitz,-26.6481,15.1594,15.06,69,0,2.37,,1714967602
325,keita,14.7551,5.7749,29.39,20,0,1.87,NE,1714967602
326,adam,22.3756,57.5233,29.59,64,69,2.3,OM,1714967603
327,indramayu,-6.3264,108.32,30.24,56,13,2.7,ID,1714967603
328,kristiansund,63.1115,7.732,8.36,81,75,2.06,NO,1714967603
329,buka,40.8108,69.1986,21.42,58,15,1.46,UZ,1714967603
330,sumberpucung,-8.1586,112.4829,29.71,51,21,3.86,ID,1714967604
331,tosontsengel,48.7567,98.2839,19.68,18,4,2.9,MN,1714967604
332,narasapur,16.45,81.6667,33.3,63,3,5.06,IN,1714967604
333,yeppoon,-23.1333,150.7333,24.88,74,67,7.15,AU,1714967604
334,uchiza,-8.4592,-76.4633,22.92,81,61,0.74,PE,1714967605
335,labuan,-6.3784,105.83,30.42,67,5,0.99,ID,1714967605
336,juneau,58.3019,-134.4197,8.0,95,100,6.69,US,1714967605
337,happy valley-goose bay,53.3168,-60.3315,12.17,54,75,6.17,CA,1714967605
338,harnosand,62.6323,17.9379,3.01,78,64,6.6,SE,1714967606
339,lerwick,60.1545,-1.1494,9.0,96,99,2.53,GB,1714967606
340,kuala belait,4.5833,114.1833,31.09,70,5,0.99,BN,1714967606
341,kiruna,67.8557,20.2251,-2.49,74,100,1.03,SE,1714967606
342,mili,6.0815,171.735,27.9,82,100,7.26,MH,1714967607
343,semnan,35.5729,53.3971,21.08,29,34,1.3,IR,1714967607
344,bataipora,-22.2953,-53.2711,21.37,44,0,2.73,BR,1714967607
345,porangatu,-13.4408,-49.1486,23.06,65,94,1.46,BR,1714967608
346,mendi,-6.1761,143.6513,17.81,95,100,1.74,PG,1714967608
347,kapit,2.0167,112.9333,33.88,50,93,0.64,MY,1714967608
348,uturoa,-16.7333,-151.4333,28.02,80,7,8.84,PF,1714967608
349,bovalino,38.149,16.174,15.17,51,68,2.63,IT,1714967608
350,kutoarjo,-7.7169,109.9128,30.79,59,42,3.45,ID,1714967609
351,antofagasta,-23.65,-70.4,14.6,88,45,2.52,CL,1714967609
352,acarau,-2.8856,-40.12,25.5,91,100,3.99,BR,1714967485
353,o barco de valdeorras,42.4164,-6.9901,8.61,97,41,0.95,ES,1714967610
354,vallenar,-28.5708,-70.7581,14.31,53,1,0.44,CL,1714967610
355,hotan,37.0997,79.9269,25.61,13,76,5.36,CN,1714967610
356,darwin,-12.4611,130.8418,33.27,42,0,5.14,AU,1714967611
357,lucapa,-8.4192,20.7447,17.29,67,0,1.68,AO,1714967611
358,maxixe,-23.8597,35.3472,19.66,82,1,1.48,MZ,1714967611
359,chadan,51.2833,91.5833,20.73,26,99,3.09,RU,1714967612
360,denov,38.2667,67.9,24.24,41,1,3.98,UZ,1714967612
361,minas de marcona,-15.2119,-75.1103,15.46,90,81,5.58,PE,1714967612
362,vilyuysk,63.7553,121.6247,2.78,85,99,4.47,RU,1714967612
363,montrose,38.4783,-107.8762,14.81,36,100,8.23,US,1714967613
364,taoudenni,22.6783,-3.9836,28.22,7,0,2.97,ML,1714967613
365,fale old settlement,-9.3852,-171.2468,29.67,76,67,2.82,TK,1714967613
366,zaragoza,41.6561,-0.8773,16.12,77,20,0.51,ES,1714967613
367,chibougamau,49.9168,-74.3659,4.79,100,40,0.0,CA,1714967614
368,grand falls-windsor,48.9332,-55.6649,5.84,81,86,1.8,CA,1714967614
369,road town,18.4167,-64.6167,29.05,80,100,5.68,VG,1714967614
370,severo-yeniseyskiy,60.3725,93.0408,5.88,86,100,3.58,RU,1714967614
371,erdenet,49.0333,104.0833,18.93,26,100,2.15,MN,1714967615
372,chipata,-13.6333,32.65,15.93,82,86,1.75,ZM,1714967615
373,srivardhan,18.0333,73.0167,30.56,67,0,4.57,IN,1714967615
374,kalmunai,7.4167,81.8167,31.71,67,58,2.81,LK,1714967615
375,santyoku,37.4406,129.1708,17.22,79,100,3.88,KR,1714967616
376,murun-kuren,49.6342,100.1625,20.82,23,14,1.53,MN,1714967616
377,mata-utu,-13.2816,-176.1745,29.6,76,71,5.09,WF,1714967616
378,camana,-16.6228,-72.7111,20.07,89,94,2.62,PE,1714967616
379,port augusta,-32.5,137.7667,22.51,32,0,5.07,AU,1714967617
380,tofol,5.3248,163.0078,28.88,84,100,5.14,FM,1714967617
381,palmer,42.1584,-72.3287,9.36,83,100,2.06,US,1714967617
382,bathsheba,13.2167,-59.5167,28.34,83,20,8.23,BB,1714967617
383,cidreira,-30.1811,-50.2056,21.27,97,27,3.47,BR,1714967618
384,bengkulu,-3.8004,102.2655,29.73,70,9,2.85,ID,1714967618
385,dhidhdhoo,6.8833,73.1,29.64,75,87,4.52,MV,1714967524
386,qom,34.6401,50.8764,20.72,40,91,7.48,IR,1714967618
387,lospalos,-8.5186,127.0025,26.58,73,39,5.58,TL,1714967618
388,magadan,59.5667,150.8,3.07,74,17,1.43,RU,1714967619
389,colonia,40.5746,-74.3021,12.89,87,100,1.54,US,1714967619
390,sovetskiy,61.3614,63.5842,-0.62,65,16,2.24,RU,1714967619
391,filadelfia,-22.35,-60.0333,27.53,47,0,5.44,PY,1714967619
392,gorontalo,0.5412,123.0595,33.27,54,65,2.28,ID,1714967620
393,vom,9.7333,8.7833,21.05,73,100,1.61,NG,1714967620
394,khvansar,33.2205,50.315,10.54,48,82,0.56,IR,1714967620
395,kiama,-34.6833,150.8667,20.0,83,87,1.34,AU,1714967621
396,mount pleasant,32.7941,-79.8626,23.33,92,0,3.09,US,1714967621
397,veraval,20.9,70.3667,29.81,64,8,5.57,IN,1714967621
398,itoman,26.1247,127.6694,30.43,79,75,7.2,JP,1714967622
399,brighton beach,-29.9396,31.0009,21.09,65,0,2.28,ZA,1714967622
400,san carlos,9.6612,-68.5827,24.43,91,95,1.36,VE,1714967579
401,wynyard,-41.0,145.7167,13.71,73,56,1.98,AU,1714967622
402,zheleznogorsk,52.331,35.3711,9.48,75,98,3.24,RU,1714967622
403,dock junction,31.2025,-81.5168,25.0,88,75,4.63,US,1714967623
404,malabar,-33.9667,151.25,21.54,56,40,11.32,AU,1714967623
405,olds,51.7834,-114.102,8.47,77,100,1.23,CA,1714967623
406,charlestown,-32.95,151.6667,19.85,84,79,7.15,AU,1714967624
407,marianna,30.7744,-85.2269,24.42,73,0,2.06,US,1714967462
408,harstad,68.799,16.5293,1.25,83,6,9.83,NO,1714967624
409,eagle,43.6954,-116.354,10.27,82,100,5.14,US,1714967492
410,loen,7.7601,168.2307,28.49,79,70,8.74,MH,1714967624
411,apatity,67.5641,33.4031,-3.52,85,49,4.03,RU,1714967625
412,simrishamn,55.5565,14.3504,10.15,98,100,2.49,SE,1714967625
413,paradip garh,20.3167,86.6167,34.13,60,49,8.67,IN,1714967626
414,chabua,27.4825,95.1736,20.97,88,75,3.09,IN,1714967626
415,rudnichnyy,59.617,52.4703,0.78,97,100,4.17,RU,1714967626
416,hoemul-li,41.4339,129.67,10.07,96,100,3.14,KP,1714967626
417,gamba,-2.65,10.0,25.9,90,100,2.88,GA,1714967626
418,winnemucca,40.973,-117.7357,3.48,74,100,6.52,US,1714967627
419,kulhudhuffushi,6.6221,73.07,29.7,75,100,4.61,MV,1714967627
420,salaga,8.5508,-0.5188,26.89,81,84,2.94,GH,1714967627
421,leiyang,26.4024,112.8591,26.74,61,100,0.4,CN,1714967628
422,sola,-13.8833,167.55,29.37,79,100,5.14,VU,1714967628
423,bella vista,36.4295,-94.2316,18.29,98,75,2.06,US,1714967629
424,aitape,-3.1374,142.3475,29.58,79,100,2.63,PG,1714967629
425,leua,-11.65,20.45,14.51,64,2,1.66,AO,1714967629
426,qamdo,31.1667,97.2333,9.0,36,100,2.52,CN,1714967629
427,puerto colombia,10.9878,-74.9547,29.05,83,100,3.05,CO,1714967630
428,yangquan,37.8575,113.5633,23.11,32,59,0.38,CN,1714967630
429,hilo,19.7297,-155.09,25.16,87,100,6.17,US,1714967630
430,phaphund,26.6,79.4667,39.34,11,0,5.49,IN,1714967631
431,antsiranana,-12.2787,49.2917,25.01,74,11,7.04,MG,1714967631
432,zmeinogorsk,51.1567,82.195,10.49,52,100,3.79,RU,1714967631
433,bonthe,7.5264,-12.505,27.27,85,100,1.77,SL,1714967631
434,diamantina,-18.2494,-43.6003,14.71,97,0,2.56,BR,1714967631
435,nishinoomote,30.7333,131.0,22.31,100,75,6.17,JP,1714967632
436,neiafu,-18.65,-173.9833,27.38,94,100,3.09,TO,1714967632
437,havre,48.55,-109.6841,10.15,76,0,3.09,US,1714967633
438,campina grande,-7.2306,-35.8811,21.9,94,0,1.54,BR,1714967633
439,norilsk,69.3535,88.2027,-5.32,70,100,1.85,RU,1714967633
440,sinabang,2.4803,96.3801,30.21,71,78,0.95,ID,1714967633
441,suzemka,52.3178,34.0689,10.31,83,42,3.43,RU,1714967634
442,nizip,37.0097,37.7942,11.07,77,92,0.29,TR,1714967634
443,ingeniero jacobacci,-41.3427,-69.5448,2.13,70,14,10.02,AR,1714967634
444,matam,15.6175,-13.3303,32.0,31,0,1.03,SN,1714967634
445,bozoum,6.3193,16.3799,22.46,50,9,2.05,CF,1714967634
446,greenville,35.6127,-77.3663,21.01,97,100,4.12,US,1714967635
447,paros,37.0833,25.15,17.95,63,0,9.26,GR,1714967635
448,kingston,17.997,-76.7936,28.53,74,40,6.69,JM,1714967600
449,baruun-urt,46.6806,113.2792,18.78,18,81,0.73,MN,1714967635
450,ulsteinvik,62.3432,5.8487,8.84,95,73,0.45,NO,1714967636
451,swift current,50.2834,-107.8014,16.45,48,20,6.17,CA,1714967446
452,saguenay,48.4168,-71.0657,10.06,94,100,2.57,CA,1714967636
453,al ghayzah,16.2079,52.176,30.04,73,39,4.6,YE,1714967636
454,inhambane,-23.865,35.3833,20.49,79,1,1.72,MZ,1714967637
455,valga,57.7778,26.0473,6.67,71,96,0.45,EE,1714967637
456,bubaque,11.2833,-15.8333,26.27,67,11,4.39,GW,1714967638
457,myanaung,18.2833,95.3167,36.02,36,1,2.97,MM,1714967638
458,fortuna,40.5982,-124.1573,10.92,89,75,0.0,US,1714967638
459,mersing,2.4312,103.8405,33.95,75,40,3.09,MY,1714967638
460,ponta delgada,37.7333,-25.6667,18.44,94,75,4.63,PT,1714967638
461,alenquer,-1.9417,-54.7383,24.58,97,93,1.43,BR,1714967639
462,xilin hot,43.9667,116.0333,18.95,21,31,4.91,CN,1714967639
463,santa cruz,14.2814,121.4161,34.03,50,70,4.75,PH,1714967639
464,allegan,42.5292,-85.8553,12.45,89,87,0.45,US,1714967639
465,murashi,59.3999,48.9615,0.84,99,100,2.81,RU,1714967640
466,gorele,41.0308,39.0031,10.3,85,100,5.12,TR,1714967640
467,sebastian,27.8164,-80.4706,26.14,81,0,4.63,US,1714967362
468,san martin,-33.081,-68.4681,12.3,53,0,4.07,AR,1714967641
469,tanout,14.9709,8.8879,28.54,14,0,2.98,NE,1714967641
470,altai,46.3722,96.2583,16.81,12,86,7.24,MN,1714967641
471,syktyvkar,61.6764,50.8099,-0.15,86,75,4.0,RU,1714967641
472,khandyga,62.6667,135.6,3.79,99,100,1.68,RU,1714967642
473,kryve ozero,47.9524,30.3493,11.2,69,70,3.27,UA,1714967642
474,arar,30.9753,41.0381,19.01,34,40,6.69,SA,1714967642
475,yorkton,51.2167,-102.4677,11.91,54,100,4.63,CA,1714967642
476,homa bay,-0.5273,34.4571,19.19,87,94,1.78,KE,1714967643
477,cajabamba,-7.6167,-78.05,13.37,82,73,1.82,PE,1714967643
478,berdigestyakh,62.0989,126.6992,3.2,100,100,1.16,RU,1714967644
479,buritizeiro,-17.3511,-44.9622,18.67,88,0,1.27,BR,1714967644
480,jayapura,-2.5333,140.7,30.66,79,100,3.65,ID,1714967644
481,ad dawadimi,24.5077,44.3924,22.64,22,0,4.81,SA,1714967645
482,kiunga,-6.1219,141.2906,26.86,83,100,0.75,PG,1714967645
483,bokovskaya,49.229,41.8306,11.03,47,100,5.71,RU,1714967645
484,jiangyou,31.7667,104.7167,26.47,47,57,3.08,CN,1714967419
485,sittwe,20.15,92.9,31.4,62,63,3.36,MM,1714967646
486,itarsi,22.6167,77.75,36.56,23,48,4.52,IN,1714967646
487,upington,-28.4478,21.2561,19.21,30,0,4.12,ZA,1714967647
488,papao,-17.75,-149.55,29.82,83,2,9.79,PF,1714967647
489,san julian,21.0167,-102.1667,25.0,18,99,6.31,MX,1714967647
490,chokwe,-24.5333,32.9833,16.63,77,0,2.53,MZ,1714967647
491,gaiman,-43.2897,-65.4929,7.79,40,91,4.44,AR,1714967648
492,flin flon,54.7682,-101.865,8.54,63,26,3.58,CA,1714967648
493,gadani,25.1185,66.7299,29.12,70,0,6.14,PK,1714967649
494,ingeniero guillermo n. juarez,-23.9,-61.85,23.6,62,2,3.54,AR,1714967649
495,boonville,38.9736,-92.7432,16.43,100,100,0.0,US,1714967649
496,natal,-5.795,-35.2094,25.12,94,20,2.57,BR,1714967649
497,altay,47.8667,88.1167,21.34,18,94,1.97,CN,1714967650
498,nantucket,41.2835,-70.0995,9.49,94,100,5.66,US,1714967650
499,remire-montjoly,4.9167,-52.2667,26.02,100,75,1.54,GF,1714967650
500,ulaangom,49.9811,92.0667,22.3,19,72,3.29,MN,1714967651
501,barra do garcas,-15.89,-52.2567,20.56,68,0,0.91,BR,1714967651
502,bintulu,3.1667,113.0333,32.23,66,20,1.54,MY,1714967651
503,horta,38.5333,-28.6333,18.34,96,100,8.49,PT,1714967651
504,rongelap,11.1635,166.8941,27.68,78,80,7.99,MH,1714967651
505,sumenep,-7.0167,113.8667,29.03,62,34,3.68,ID,1714967652
506,the pas,53.8251,-101.2541,12.01,50,75,4.12,CA,1714967652
507,sidi ifni,29.3797,-10.173,17.86,86,100,3.15,MA,1714967652
508,urucara,-2.5364,-57.76,24.64,99,98,1.02,BR,1714967652
509,dambulla,7.86,80.6517,33.64,50,6,3.14,LK,1714967653
510,cabedelo,-6.9811,-34.8339,25.37,84,30,4.98,BR,1714967653
511,ceeldheer,3.8488,47.1806,27.23,80,82,4.9,SO,1714967653
512,khuzdar,27.7384,66.6434,27.13,29,0,2.35,PK,1714967654
513,linkou,45.3,130.2833,12.62,39,100,8.39,CN,1714967654
514,gazli,40.1333,63.45,21.03,45,0,5.47,UZ,1714967654
515,pangody,65.85,74.4859,-5.42,91,100,7.95,RU,1714967655
516,oral,51.2333,51.3667,7.99,49,0,9.0,KZ,1714967655
517,lame,10.4415,9.2396,26.42,49,95,1.88,NG,1714967655
518,lulea,65.5842,22.1547,1.04,60,100,2.57,SE,1714967551
519,lapai,9.05,6.5667,26.73,78,100,1.42,NG,1714967656
520,shimoda,34.6667,138.95,22.28,74,100,4.71,JP,1714967656
521,caiaponia,-16.9567,-51.8103,18.68,68,0,1.98,BR,1714967656
522,port blair,11.6667,92.75,34.02,62,40,2.57,IN,1714967656
523,christchurch,-43.5333,172.6333,11.11,59,75,8.23,NZ,1714967657
524,xai-xai,-25.0519,33.6442,16.68,90,0,3.14,MZ,1714967657
525,salinopolis,-0.6136,-47.3561,25.54,93,99,9.92,BR,1714967657
526,thulamahashi,-24.7246,31.1994,16.0,44,0,1.17,ZA,1714967657
527,bandarbeyla,9.4942,50.8122,28.83,74,100,2.12,SO,1714967658
528,voi,-3.3945,38.563,22.16,89,100,2.59,KE,1714967658
529,atherton,53.5237,-2.4935,11.38,88,99,1.3,GB,1714967658
530,xiangxiang,27.7333,112.5333,26.27,64,96,1.98,CN,1714967658
531,callao,-12.0667,-77.15,20.95,82,0,6.69,PE,1714967657
532,wewak,-3.5534,143.6268,28.35,80,100,2.07,PG,1714967659
533,anak,38.5108,125.4942,12.39,93,100,4.6,KP,1714967659
534,luganville,-15.5333,167.1667,27.11,79,85,4.85,VU,1714967659
535,lionel town,17.8101,-77.2406,28.94,90,0,2.36,JM,1714967659
536,pelabuhanratu,-6.9875,106.5514,31.61,58,0,1.59,ID,1714967660
537,usevia,-7.1,31.2333,17.88,98,67,1.68,TZ,1714967660
538,sao felix do xingu,-6.6447,-51.995,22.9,93,39,0.9,BR,1714967660
539,markovo,57.3206,107.0881,22.69,30,95,6.45,RU,1714967660
540,soe,-9.8607,124.284,24.43,63,90,2.31,ID,1714967660
541,turpan,42.9333,89.1667,35.08,5,2,2.01,CN,1714967661
542,vila velha,-20.3297,-40.2925,25.97,83,100,3.6,BR,1714967661
543,pechora,65.1472,57.2244,-3.97,77,30,1.34,RU,1714967661
544,aiquile,-18.2041,-65.1807,13.93,86,3,1.89,BO,1714967661
545,carolina beach,34.0352,-77.8936,22.79,91,3,5.42,US,1714967662
546,plessisville,46.2186,-71.762,8.69,95,100,4.11,CA,1714967662
547,chamical,-30.36,-66.314,16.79,77,0,3.02,AR,1714967662
548,cape coast,5.1053,-1.2466,27.39,86,68,3.02,GH,1714967663
549,hobyo,5.3505,48.5268,28.15,71,98,3.98,SO,1714967663
