City_ID,City,Lat,Lng,Max Temp,Humidity,Cloudiness,Wind Speed,Country,Date
0,puerto natales,-51.7236,-72.4875,-1.34,91,19,1.49,CL,2024-05-06
1,praia da vitoria,38.7333,-27.0667,19.14,94,75,12.65,PT,2024-05-06
2,mahajanga,-15.7167,46.3167,26.01,61,20,6.17,MG,2024-05-06
3,nelson,-41.2833,173.2833,10.72,70,8,0.7,NZ,2024-05-06
4,grytviken,-54.2811,-36.5092,0.6,83,69,4.34,GS,2024-05-06
5,upington,-28.4478,21.2561,24.21,20,0,6.17,ZA,2024-05-06
6,gamba,-2.65,10.0,26.01,91,92,2.79,GA,2024-05-06
7,nova vicosa,-17.8919,-39.3719,25.35,83,0,4.07,BR,2024-05-06
8,mhamid,29.82,-5.72,27.1,9,0,2.99,MA,2024-05-06
9,flekkefjord,58.2971,6.6607,11.08,68,90,3.79,NO,2024-05-06
10,edinburgh of the seven seas,-37.0676,-12.3116,13.97,68,67,8.05,SH,2024-05-06
11,punta arenas,-53.15,-70.9167,3.06,87,75,1.03,CL,2024-05-06
12,fort bragg,35.139,-79.006,25.08,84,100,3.6,US,2024-05-06
13,klyuchi,52.2667,79.1667,4.96,58,60,3.42,RU,2024-05-06
14,iqaluit,63.7506,-68.5145,-1.15,64,20,4.63,CA,2024-05-06
15,margaret river,-33.95,115.0667,12.39,87,8,3.32,AU,2024-05-06
16,waitangi,-43.9535,-176.5597,11.57,84,90,3.13,NZ,2024-05-06
17,college,64.8569,-147.8028,1.36,89,100,2.57,US,2024-05-06
18,port-aux-francais,-49.35,70.2167,6.71,97,100,13.22,TF,2024-05-06
19,kodiak,57.79,-152.4072,5.48,85,85,3.71,US,2024-05-06
20,bredasdorp,-34.5322,20.0403,14.78,66,0,1.41,ZA,2024-05-06
21,st. john's,47.5649,-52.7093,6.82,73,100,0.89,CA,2024-05-06
22,qaqortoq,60.7167,-46.0333,-1.1,74,1,1.8,GL,2024-05-06
23,posto fiscal rolim de moura,-13.0833,-62.2667,27.5,68,99,1.07,BR,2024-05-06
24,ushuaia,-54.8,-68.3,0.81,93,100,3.09,AR,2024-05-06
25,opuwo,-18.0607,13.84,17.27,44,1,1.89,NA,2024-05-06
26,christchurch,-43.5333,172.6333,11.34,78,90,1.54,NZ,2024-05-06
27,avarua,-21.2078,-159.775,28.03,89,75,6.17,CK,2024-05-06
28,plettenberg bay,-34.0527,23.3716,16.91,57,0,0.62,ZA,2024-05-06
29,mossel bay,-34.1831,22.146,13.96,76,0,2.31,ZA,2024-05-06
30,santiago juxtlahuaca,17.3333,-98.0167,25.15,38,67,3.03,MX,2024-05-06
31,sitka,57.0531,-135.33,6.76,82,94,2.68,US,2024-05-06
32,dolisie,-4.1997,12.6739,23.41,97,28,1.76,CG,2024-05-06
33,adamstown,-25.066,-130.1015,21.95,78,45,8.19,PN,2024-05-06
34,carnarvon,-24.8667,113.6333,19.06,61,0,7.63,AU,2024-05-06
35,kittila,67.6647,24.8936,-1.92,74,0,4.12,FI,2024-05-06
36,cheria,35.2731,7.7519,19.35,26,88,1.55,DZ,2024-05-06
37,west island,-12.1568,96.8225,26.99,83,40,6.69,CC,2024-05-06
38,nova sintra,14.8667,-24.7167,23.14,79,4,7.94,CV,2024-05-06
39,razampeta,14.1833,79.1667,29.12,68,93,1.32,IN,2024-05-06
40,zomba,-15.386,35.3188,17.36,89,45,1.42,MW,2024-05-06
41,ribeira grande,38.5167,-28.7,18.22,88,40,7.6,PT,2024-05-06
42,port mathurin,-19.6833,63.4167,25.86,72,57,10.82,MU,2024-05-06
43,dongola,19.1667,30.4833,26.53,21,0,5.87,SD,2024-05-06
44,shimoda,34.6667,138.95,18.39,91,100,4.7,JP,2024-05-06
45,fuli,46.7217,131.1394,9.25,42,2,5.32,CN,2024-05-06
46,bethel,41.3712,-73.414,21.93,93,100,1.66,US,2024-05-06
47,datong,40.0936,113.2914,14.79,26,0,3.19,CN,2024-05-06
48,eilat,29.5581,34.9482,20.91,37,0,2.57,IL,2024-05-06
49,kapuskasing,49.4169,-82.4331,17.0,36,75,5.14,CA,2024-05-06
50,pechora,65.1472,57.2244,-0.64,57,100,0.45,RU,2024-05-06
51,ganghwa-gun,37.7472,126.4856,13.01,93,100,3.8,KR,2024-05-06
52,nabire,-3.3667,135.4833,26.91,86,99,0.85,ID,2024-05-06
53,mzimba,-11.9,33.6,17.51,86,6,3.76,MW,2024-05-06
54,monte argentario,42.4345,11.1195,15.47,82,97,6.72,IT,2024-05-06
55,pala,9.3642,14.9046,32.11,15,8,2.73,TD,2024-05-06
56,katpur,21.05,71.7833,28.91,56,0,3.26,IN,2024-05-06
57,isafjordur,66.0755,-23.124,1.7,89,100,3.56,IS,2024-05-06
58,kharabali,47.4196,47.2568,12.38,34,0,2.68,RU,2024-05-06
59,afaahiti,-17.75,-149.2833,28.93,85,73,9.94,PF,2024-05-06
60,bilibino,68.0546,166.4372,-2.79,90,85,1.2,RU,2024-05-06
61,hamilton,39.1834,-84.5333,21.8,90,100,2.06,US,2024-05-06
62,tual,-5.6667,132.75,27.21,84,100,6.62,ID,2024-05-06
63,powell river,49.8496,-124.5361,12.8,54,40,4.12,CA,2024-05-06
64,mezhova,48.2532,36.7347,12.84,77,82,5.15,UA,2024-05-06
65,utrik,11.2278,169.8474,27.28,82,93,8.47,MH,2024-05-06
66,lewiston orchards,46.3804,-116.9754,15.39,54,100,5.14,US,2024-05-06
67,port douglas,-16.4833,145.4667,23.47,87,73,4.29,AU,2024-05-06
68,blackmans bay,-43.0167,147.3167,8.07,85,8,1.16,AU,2024-05-06
69,smithers,54.7804,-127.1743,10.18,43,75,2.57,CA,2024-05-06
70,lompoc,34.6391,-120.4579,23.9,57,0,7.2,US,2024-05-06
71,ouargla,31.9493,5.325,30.25,11,100,4.07,DZ,2024-05-06
72,invercargill,-46.4,168.35,8.34,93,97,3.58,NZ,2024-05-06
73,mezhdurechenskiy,59.6,65.9333,3.7,95,91,3.97,RU,2024-05-06
74,mar del plata,-38.0023,-57.5575,15.05,85,75,3.6,AR,2024-05-06
75,hadibu,12.65,54.0333,29.13,75,65,2.61,YE,2024-05-06
76,igarka,67.4667,86.5833,-7.29,93,100,5.85,RU,2024-05-06
77,saipan,15.1355,145.701,30.39,66,75,4.63,MP,2024-05-06
78,siwa oasis,29.2041,25.5195,20.89,34,100,5.45,EG,2024-05-06
79,la gi,10.6667,107.7833,27.15,80,24,5.0,VN,2024-05-06
80,codajas,-3.8367,-62.0569,23.37,97,100,1.44,BR,2024-05-06
81,kaliganj,23.4095,89.1402,23.35,83,46,3.06,BD,2024-05-06
82,port saint john's,-31.6229,29.5448,22.85,47,0,3.0,ZA,2024-05-06
83,karaton,-6.3424,106.1045,22.64,97,22,0.55,ID,2024-05-06
84,hassi messaoud,31.6804,6.0729,31.23,9,100,6.22,DZ,2024-05-06
85,jamestown,42.097,-79.2353,16.8,36,0,4.12,US,2024-05-06
86,mata-utu,-13.2816,-176.1745,29.76,76,50,6.71,WF,2024-05-06
87,kuanda,56.3161,116.0806,13.52,49,100,0.78,RU,2024-05-06
88,yorkton,51.2167,-102.4677,12.91,76,100,9.26,CA,2024-05-06
89,seosan,36.7817,126.4522,12.39,95,100,2.08,KR,2024-05-06
90,san andres,12.5847,-81.7006,30.01,79,20,5.66,CO,2024-05-06
91,tiksi,71.6872,128.8694,-1.75,90,82,2.06,RU,2024-05-06
92,lebu,-37.6167,-73.65,11.2,91,100,13.25,CL,2024-05-06
93,ilulissat,69.2167,-51.1,-4.99,68,100,3.09,GL,2024-05-06
94,port alfred,-33.5906,26.891,19.31,86,0,1.76,ZA,2024-05-06
95,zajas,41.6072,20.9383,10.06,93,90,2.78,MK,2024-05-06
96,saint-francois,46.4154,3.9054,9.82,94,75,1.54,FR,2024-05-06
97,oranjemund,-28.55,16.4333,14.76,76,0,1.65,NA,2024-05-06
98,cabo san lucas,22.8909,-109.9124,27.56,55,100,1.79,MX,2024-05-06
99,yellowknife,62.456,-114.3525,17.45,47,75,5.81,CA,2024-05-06
100,yangquan,37.8575,113.5633,16.16,48,18,0.95,CN,2024-05-06
101,la ronge,55.1001,-105.2842,14.14,51,100,3.6,CA,2024-05-06
102,tazovsky,67.4667,78.7,-14.62,99,96,3.72,RU,2024-05-06
103,salinas,36.6777,-121.6555,23.34,65,0,5.66,US,2024-05-06
104,ilebo,-4.3167,20.5833,22.76,58,20,0.66,CD,2024-05-06
105,stribro,49.7529,13.0041,14.01,91,100,4.99,CZ,2024-05-06
106,keflavik,64.0049,-22.5624,4.95,87,40,7.2,IS,2024-05-06
107,wailua homesteads,22.0669,-159.378,27.24,78,67,3.13,US,2024-05-06
108,dobrich,43.5667,27.8333,11.99,75,38,4.41,BG,2024-05-06
109,mount isa,-20.7333,139.5,20.87,40,44,4.63,AU,2024-05-06
110,egilsstadir,65.2653,-14.3948,4.95,60,0,4.63,IS,2024-05-06
111,tolanaro,-25.0319,46.9987,22.04,83,20,6.69,MG,2024-05-06
112,udachny,66.4167,112.4,-0.31,98,97,9.17,RU,2024-05-06
113,perambalur,11.2333,78.8833,29.08,58,8,1.69,IN,2024-05-06
114,anloga,5.7947,0.8973,29.19,77,79,4.81,GH,2024-05-06
115,hasaki,35.7333,140.8333,19.22,80,100,11.31,JP,2024-05-06
116,zaragoza,41.6561,-0.8773,15.01,56,0,3.6,ES,2024-05-06
117,naama,33.2667,-0.3167,17.13,29,68,6.01,DZ,2024-05-06
118,hawaiian paradise park,19.5933,-154.9731,23.91,91,100,2.06,US,2024-05-06
119,hithadhoo,-0.6,73.0833,29.28,73,100,3.27,MV,2024-05-06
120,puerto ayora,-0.7393,-90.3518,25.98,96,34,1.34,EC,2024-05-06
121,ceerigaabo,10.6162,47.368,19.51,76,96,0.91,SO,2024-05-06
122,constantia,44.1833,28.65,10.39,74,59,6.85,RO,2024-05-06
123,westport,41.1415,-73.3579,22.16,85,0,1.54,US,2024-05-06
124,nong wua so,17.1626,102.5727,29.05,74,14,0.64,TH,2024-05-06
125,las vegas,36.175,-115.1372,26.18,17,0,3.09,US,2024-05-06
126,papatowai,-46.5619,169.4708,10.25,72,72,5.97,NZ,2024-05-06
127,harper,4.375,-7.7169,27.05,84,98,1.54,LR,2024-05-06
128,martinsburg,39.4562,-77.9639,23.01,84,100,1.04,US,2024-05-06
129,arraial do cabo,-22.9661,-42.0278,23.98,83,0,4.63,BR,2024-05-06
130,mendoza,-32.8908,-68.8272,13.74,72,40,1.03,AR,2024-05-06
131,lodja,-3.4833,23.4333,23.06,65,9,0.86,CD,2024-05-06
132,lihue,21.9789,-159.3672,27.58,70,66,6.86,US,2024-05-06
133,usogorsk,63.4106,48.6872,-1.3,58,97,2.62,RU,2024-05-06
134,naberera,-4.2,36.9333,16.64,92,85,3.91,TZ,2024-05-06
135,goroka,-6.0834,145.3873,21.02,85,97,0.72,PG,2024-05-06
136,uturoa,-16.7333,-151.4333,27.81,80,57,9.21,PF,2024-05-06
137,stanley,54.868,-1.6985,10.29,95,100,2.06,GB,2024-05-06
138,robore,-18.3333,-59.75,34.05,52,11,5.14,BO,2024-05-06
139,sabang,5.8933,95.3214,29.27,75,96,4.35,ID,2024-05-06
140,pierre,44.3683,-100.351,19.51,75,100,12.86,US,2024-05-06
141,rahimah,26.7079,50.0619,27.12,69,86,4.77,SA,2024-05-06
142,kingston,17.997,-76.7936,30.53,74,20,9.77,JM,2024-05-06
143,tumayr,25.7039,45.868,25.73,19,0,3.5,SA,2024-05-06
144,punta umbria,37.1821,-6.9661,17.91,43,0,5.28,ES,2024-05-06
145,icheu,7.7067,6.7718,27.47,78,37,2.18,NG,2024-05-06
146,hami,42.8,93.45,23.25,24,0,7.22,CN,2024-05-06
147,natal,-5.795,-35.2094,27.36,89,20,2.57,BR,2024-05-06
148,maumere,-8.6199,122.2111,26.76,85,79,1.65,ID,2024-05-06
149,labrador city,52.9463,-66.9114,6.95,68,75,8.23,CA,2024-05-06
150,bikenibeu village,1.3673,173.1241,28.94,75,10,5.53,KI,2024-05-06
151,talnakh,69.4865,88.3972,-14.33,99,99,2.78,RU,2024-05-06
152,mendi,-6.1761,143.6513,15.42,96,100,0.25,PG,2024-05-06
153,albany,42.6001,-73.9662,19.2,72,100,2.68,US,2024-05-06
154,nangal,31.3667,76.3833,25.9,30,0,2.0,IN,2024-05-06
155,jilib,0.4883,42.7854,25.6,91,100,1.98,SO,2024-05-06
156,bei'an,24.5399,109.533,21.04,95,65,1.0,CN,2024-05-06
157,sokcho,38.2083,128.5911,10.34,100,100,3.6,KR,2024-05-06
158,santa cruz,-17.8,-63.1667,28.7,65,40,6.69,BO,2024-05-06
159,ujae,8.9322,165.7642,27.9,82,100,9.13,MH,2024-05-06
160,hermanus,-34.4187,19.2345,14.33,70,39,2.55,ZA,2024-05-06
161,lincheng,19.9078,109.6858,25.09,87,46,1.16,CN,2024-05-06
162,swakopmund,-22.6833,14.5333,14.47,87,2,0.45,NA,2024-05-06
163,tchintabaraden,15.8969,5.7985,34.38,14,83,4.34,NE,2024-05-06
164,shiyan,32.6475,110.7781,18.56,90,100,0.95,CN,2024-05-06
165,taulaga,-11.0553,-171.0883,29.7,76,65,4.84,AS,2024-05-06
166,nawabshah,26.2483,68.4096,33.6,23,0,1.48,PK,2024-05-06
167,conceicao do araguaia,-8.2578,-49.2647,26.53,68,64,0.82,BR,2024-05-06
168,queenstown,-31.8976,26.8753,14.97,39,0,2.31,ZA,2024-05-06
169,kristiansund,63.1115,7.732,9.03,93,100,4.63,NO,2024-05-06
170,romblon,12.5751,122.2708,28.5,78,97,6.71,PH,2024-05-06
171,bocanda,7.0626,-4.4995,24.88,96,100,1.77,CI,2024-05-06
172,guarapari,-20.6667,-40.4975,23.44,85,0,2.05,BR,2024-05-06
173,kinablangan,7.6947,126.5503,26.02,75,94,1.49,PH,2024-05-06
174,port elizabeth,-33.918,25.5701,17.4,99,40,1.54,ZA,2024-05-06
175,anna regina,7.2644,-58.5077,26.62,85,100,4.21,GY,2024-05-06
176,rawlins,41.7911,-107.2387,4.08,65,100,13.89,US,2024-05-06
177,nizhnyaya poyma,56.1622,97.1933,4.87,75,35,1.09,RU,2024-05-06
178,tsiombe,-25.3,45.4833,20.3,71,0,3.41,MG,2024-05-06
179,shevchenko,48.5,35.0,13.98,55,68,5.15,UA,2024-05-06
180,falaise,48.8922,-0.1953,10.51,97,49,1.59,FR,2024-05-06
181,sitangkai,4.6628,119.3928,27.86,79,19,0.23,PH,2024-05-06
182,anadyr,64.75,177.4833,-3.72,93,0,2.0,RU,2024-05-06
183,narasannapeta,18.4167,84.05,27.28,80,43,3.94,IN,2024-05-06
184,aromashevo,56.8602,68.6375,8.43,57,100,6.95,RU,2024-05-06
185,manggar,-2.8833,108.2667,28.2,77,51,3.93,ID,2024-05-06
186,aljezur,37.3191,-8.8033,12.79,81,0,5.1,PT,2024-05-06
187,toliara,-23.35,43.6667,20.79,61,0,2.68,MG,2024-05-06
188,ranavav,21.6842,69.7408,26.8,83,0,4.24,IN,2024-05-06
189,gobabis,-22.45,18.9667,17.59,33,0,5.73,NA,2024-05-06
190,astravyets,54.6138,25.9554,7.14,95,100,4.44,BY,2024-05-06
191,yuzhno-kurilsk,44.0306,145.8556,5.76,99,100,4.02,RU,2024-05-06
192,chonchi,-42.6128,-73.8092,5.07,98,100,2.09,CL,2024-05-06
193,nuuk,64.1835,-51.7216,-2.29,68,20,7.15,GL,2024-05-06
194,lubango,-14.9172,13.4925,14.92,67,1,1.03,AO,2024-05-06
195,atafu village,-8.5421,-172.5159,29.88,75,42,5.23,TK,2024-05-06
196,wynyard,-41.0,145.7167,11.97,81,75,1.31,AU,2024-05-06
197,bokajan,26.0167,93.7833,19.36,93,100,0.27,IN,2024-05-06
198,el calafate,-50.3408,-72.2768,-2.61,70,12,1.16,AR,2024-05-06
199,vilyuchinsk,52.9306,158.4028,4.15,81,99,2.51,RU,2024-05-06
200,thompson,55.7435,-97.8558,17.09,36,75,1.54,CA,2024-05-06
201,ketchikan,55.3422,-131.6461,10.19,81,100,2.3,US,2024-05-06
202,itaituba,-4.2761,-55.9836,25.48,92,79,0.73,BR,2024-05-06
203,remire-montjoly,4.9167,-52.2667,28.02,89,100,4.12,GF,2024-05-06
204,borogontsy,62.6683,131.1683,9.83,62,95,5.54,RU,2024-05-06
205,port-gentil,-0.7193,8.7815,28.98,84,75,5.14,GA,2024-05-06
206,mindelo,16.8901,-24.9804,22.75,78,40,8.23,CV,2024-05-06
207,sarkand,45.41,79.9186,12.35,68,98,1.06,KZ,2024-05-06
208,qacha's nek,-30.1154,28.6894,9.93,40,0,1.96,LS,2024-05-06
209,douz,33.4663,9.0203,27.82,18,100,5.08,TN,2024-05-06
210,saint-leu,-21.15,55.2833,23.46,70,30,4.06,RE,2024-05-06
211,calabozo,8.9242,-67.4293,31.27,55,97,1.76,VE,2024-05-06
212,collie,-33.3667,116.15,10.39,95,7,2.51,AU,2024-05-06
213,port isabel,26.0734,-97.2086,30.04,78,100,8.23,US,2024-05-06
214,poyang,28.9924,116.6675,20.49,84,100,1.75,CN,2024-05-06
215,oriximina,-1.7656,-55.8661,25.59,94,62,1.55,BR,2024-05-06
216,shingu,33.7333,135.9833,19.49,98,100,4.71,JP,2024-05-06
217,pathein,16.7833,94.7333,28.05,80,21,3.9,MM,2024-05-06
218,tralee,52.2704,-9.7026,10.38,92,91,1.33,IE,2024-05-06
219,souillac,-20.5167,57.5167,25.21,65,40,5.66,MU,2024-05-06
220,chiredzi,-21.05,31.6667,17.07,64,0,1.4,ZW,2024-05-06
221,naze,28.3667,129.4833,20.51,82,93,4.19,JP,2024-05-06
222,heroica caborca,30.7167,-112.15,28.8,13,2,7.35,MX,2024-05-06
223,longyearbyen,78.2186,15.6401,-4.09,80,75,0.0,SJ,2024-05-06
224,argo,37.6333,22.7333,15.85,65,51,1.7,GR,2024-05-06
225,chikmagalur,13.3167,75.7833,21.34,90,69,1.59,IN,2024-05-06
226,adrar,20.5022,-10.0711,30.77,8,23,3.34,MR,2024-05-06
227,utete,-7.986,38.758,22.24,97,27,1.2,TZ,2024-05-06
228,georgetown,5.4112,100.3354,26.08,88,40,1.54,MY,2024-05-06
229,cockburn town,21.4612,-71.1419,25.52,84,90,9.79,TC,2024-05-06
230,sao joao dos patos,-6.495,-43.7022,23.24,69,100,1.74,BR,2024-05-06
231,whitehorse,60.7161,-135.0538,7.23,87,100,3.6,CA,2024-05-06
232,rio grande,-32.035,-52.0986,20.06,96,83,2.73,BR,2024-05-06
233,macenta,8.5435,-9.471,21.94,97,96,0.62,GN,2024-05-06
234,vorgashor,67.5833,63.95,-18.44,100,82,3.27,RU,2024-05-06
235,al kharijah,25.4514,30.5464,20.48,31,0,3.06,EG,2024-05-06
236,jiaojiang,28.6803,121.4428,19.47,89,100,0.77,CN,2024-05-06
237,inebolu,41.9747,33.7608,9.02,43,0,2.65,TR,2024-05-06
238,port blair,11.6667,92.75,27.02,94,20,1.03,IN,2024-05-06
239,mamburao,13.25,120.6667,27.71,67,17,2.13,PH,2024-05-06
240,sao jose da coroa grande,-8.8978,-35.1478,25.92,90,100,3.52,BR,2024-05-06
241,palmer,42.1584,-72.3287,23.65,56,75,2.57,US,2024-05-06
242,thum,50.6833,12.9667,12.63,96,98,0.86,DE,2024-05-06
243,banda aceh,5.5577,95.3222,27.42,80,99,2.4,ID,2024-05-06
244,salalah,17.0151,54.0924,30.05,79,40,2.57,OM,2024-05-06
245,same,-4.0667,37.7333,19.54,97,75,1.75,TZ,2024-05-06
246,sierra grande,-41.606,-65.3557,12.15,49,91,5.1,AR,2024-05-06
247,aldan,58.6031,125.3894,8.55,75,98,4.18,RU,2024-05-06
248,san antonio de pale,-1.4014,5.6325,28.0,79,93,7.6,GQ,2024-05-06
249,freeport,40.6576,-73.5832,22.99,84,0,3.6,US,2024-05-06
250,east london,-33.0153,27.9116,21.76,52,0,0.5,ZA,2024-05-06
251,ancud,-41.8697,-73.8203,6.57,94,97,1.05,CL,2024-05-06
252,horta,38.5333,-28.6333,17.8,92,40,7.6,PT,2024-05-06
253,maceio,-9.6658,-35.7353,25.69,94,100,2.06,BR,2024-05-06
254,mugia,43.1041,-9.2179,11.62,86,15,2.94,ES,2024-05-06
255,vegreville,53.5001,-112.0518,14.39,69,100,6.69,CA,2024-05-06
256,petropavlovsk-kamchatsky,53.0452,158.6483,3.33,78,75,4.0,RU,2024-05-06
257,tura,25.5198,90.2201,20.35,95,100,1.6,IN,2024-05-06
258,staryye ozinki,51.1786,49.6769,6.91,61,6,2.02,RU,2024-05-06
259,badger,64.8,-147.5333,1.31,90,100,3.09,US,2024-05-06
260,ust'-kut,56.7938,105.7672,8.45,62,92,3.89,RU,2024-05-06
261,kone,-21.0595,164.8658,25.98,49,5,1.96,NC,2024-05-06
262,port lincoln,-34.7333,135.8667,15.37,82,0,2.89,AU,2024-05-06
263,gadzhiyevo,69.2551,33.3362,-2.81,62,100,7.54,RU,2024-05-06
264,waliso,8.5333,37.9833,17.99,76,88,2.06,ET,2024-05-06
265,masuda,34.6667,131.85,17.04,89,73,5.55,JP,2024-05-06
266,juneau,58.3019,-134.4197,6.9,94,97,1.97,US,2024-05-06
267,el granada,37.5027,-122.4694,21.56,63,20,9.26,US,2024-05-06
268,kamen'-rybolov,44.7481,132.0403,7.88,56,99,8.14,RU,2024-05-06
269,dudinka,69.4058,86.1778,-14.1,100,99,2.06,RU,2024-05-06
270,luderitz,-26.6481,15.1594,14.81,75,0,3.23,NA,2024-05-06
271,zaozersk,69.4005,32.4476,-4.49,73,100,4.69,RU,2024-05-06
272,port macquarie,-31.4333,152.9167,15.5,65,100,4.65,AU,2024-05-06
273,salina cruz,16.1667,-95.2,31.18,58,3,7.04,MX,2024-05-06
274,al bayda,32.7627,21.7551,11.16,71,1,0.48,LY,2024-05-06
275,greymouth,-42.4667,171.2,9.49,52,77,2.31,NZ,2024-05-06
276,fort frances,48.5999,-93.4003,22.12,28,0,8.23,CA,2024-05-06
277,manavalakurichi,8.1333,77.3,28.31,80,100,5.38,IN,2024-05-06
278,saint-philippe,-21.3585,55.7679,21.77,82,46,5.97,RE,2024-05-06
279,kavieng,-2.5744,150.7967,28.66,78,98,1.8,PG,2024-05-06
280,nokia,61.4667,23.5,-2.01,75,0,0.51,FI,2024-05-06
281,tafuna,-14.3358,-170.72,29.28,81,95,5.67,AS,2024-05-06
282,pandan,14.0453,124.1694,28.06,80,34,1.99,PH,2024-05-06
283,labytnangi,66.6572,66.4183,-18.68,94,31,2.91,RU,2024-05-06
284,forres,57.6113,-3.6108,9.94,87,75,4.12,GB,2024-05-06
285,kavalerovo,44.2661,135.0572,6.89,96,100,1.34,RU,2024-05-06
286,codrington,-38.2667,141.9667,11.03,86,4,2.36,AU,2024-05-06
287,nishinoomote,30.7333,131.0,19.71,78,100,10.42,JP,2024-05-06
288,el porvenir,13.7617,-87.3458,34.63,51,84,2.78,HN,2024-05-06
289,mount pearl,47.5166,-52.7813,7.2,73,100,3.58,CA,2024-05-06
290,kuybyshevo,47.8123,38.9073,10.07,81,39,3.26,RU,2024-05-06
291,kuqa,41.7278,82.9364,22.83,27,97,3.92,CN,2024-05-06
292,san carlos,9.6612,-68.5827,29.13,67,100,1.23,VE,2024-05-06
293,shenjiamen,29.9576,122.298,17.89,88,100,1.11,CN,2024-05-06
294,kyshtovka,56.555,76.6271,4.63,55,72,2.24,RU,2024-05-06
295,tadine,-21.55,167.8833,24.37,60,5,5.26,NC,2024-05-06
296,katsuren-haebaru,26.3369,127.8719,26.21,84,40,4.63,JP,2024-05-06
297,rosetta,31.4044,30.4164,18.17,64,0,6.45,EG,2024-05-06
298,la passe,45.5549,-0.8967,13.32,87,45,6.55,FR,2024-05-06
299,nobres,-14.7203,-56.3275,25.47,60,1,2.31,BR,2024-05-06
300,san vicente de canete,-13.0751,-76.3835,19.16,90,70,1.96,PE,2024-05-06
301,valparaiso,-33.0393,-71.6273,14.13,58,0,3.09,CL,2024-05-06
302,trujillo,-8.116,-79.03,17.98,94,100,5.14,PE,2024-05-06
303,minas,-34.3759,-55.2377,18.71,99,94,1.3,UY,2024-05-06
304,namibe,-15.1961,12.1522,22.86,70,2,2.51,AO,2024-05-06
305,malango,-2.9627,119.9001,20.6,97,99,0.68,ID,2024-05-06
306,ambodifotatra,-16.9833,49.85,25.59,74,20,9.13,MG,2024-05-06
307,cooma,-36.2333,149.1333,7.69,77,6,0.24,AU,2024-05-06
308,santana,-0.0583,-51.1817,27.1,94,75,2.57,BR,2024-05-06
309,aver-o-mar,41.4078,-8.7812,14.58,87,0,3.09,PT,2024-05-06
310,ebon,4.582,168.6964,28.56,80,95,6.85,MH,2024-05-06
311,san patricio,28.017,-97.5169,29.4,70,39,7.42,US,2024-05-06
312,luganville,-15.5333,167.1667,26.42,69,85,5.55,VU,2024-05-06
313,glazov,58.1394,52.6584,-0.45,94,99,3.47,RU,2024-05-06
314,nakamura,32.9833,132.9333,18.68,90,100,1.87,JP,2024-05-06
315,altamont,42.2068,-121.7372,10.91,57,75,8.75,US,2024-05-06
316,barberton,-25.7884,31.0532,18.03,52,0,1.64,ZA,2024-05-06
317,kruisfontein,-34.0033,24.7314,15.06,80,1,2.34,ZA,2024-05-06
318,barra dos coqueiros,-10.9089,-37.0386,28.01,78,100,5.66,BR,2024-05-06
319,zheleznogorsk-ilimskiy,56.5768,104.1217,6.32,70,77,2.24,RU,2024-05-06
320,aykhal,66.0,111.5,0.06,97,96,9.47,RU,2024-05-06
321,vanimo,-2.6741,141.3028,27.27,87,100,0.64,PG,2024-05-06
322,nar'yan-mar,67.6713,53.087,-10.5,91,81,4.02,RU,2024-05-06
323,holualoa,19.6228,-155.9522,24.91,79,75,4.63,US,2024-05-06
324,tymovskoye,50.8456,142.655,2.51,58,47,0.85,RU,2024-05-06
325,gorno-altaysk,51.9561,85.955,5.29,81,86,0.45,RU,2024-05-06
326,saudarkrokur,65.7461,-19.6394,5.44,62,78,4.39,IS,2024-05-06
327,kas,36.2018,29.6377,17.85,35,0,1.93,TR,2024-05-06
328,manjeri,11.1167,76.1167,27.38,78,40,2.06,IN,2024-05-06
329,kharp,66.8014,65.8081,-19.05,84,33,2.65,RU,2024-05-06
330,flying fish cove,-10.4217,105.6791,25.82,94,75,5.14,CX,2024-05-06
331,necochea,-38.5473,-58.7368,11.17,72,0,4.04,AR,2024-05-06
332,fort st. john,56.2499,-120.8529,14.94,31,75,6.69,CA,2024-05-06
333,mont-laurier,46.5501,-75.4993,19.79,52,29,2.79,CA,2024-05-06
334,gaspe,48.8334,-64.4819,11.12,76,20,3.09,CA,2024-05-06
335,miyako,39.6367,141.9525,15.77,88,100,2.2,JP,2024-05-06
336,general cabrera,-32.8131,-63.8724,16.12,88,68,2.72,AR,2024-05-06
337,carboneras,37.0015,-1.9213,17.4,76,0,4.44,ES,2024-05-06
338,crucecita,-28.95,-58.9833,26.1,77,88,2.37,AR,2024-05-06
339,the pas,53.8251,-101.2541,18.01,32,0,8.75,CA,2024-05-06
340,susuman,62.7833,148.1667,0.55,76,29,1.34,RU,2024-05-06
341,mahina,-17.5065,-149.489,29.87,70,75,4.12,PF,2024-05-06
342,kourou,5.1552,-52.6478,28.03,92,100,3.09,GF,2024-05-06
343,bairnsdale,-37.8333,147.6167,10.59,98,2,1.15,AU,2024-05-06
344,niimi,34.9833,133.4667,19.19,81,84,4.3,JP,2024-05-06
345,enewetak,11.3474,162.3373,28.15,74,99,9.49,MH,2024-05-06
346,guerrero negro,27.9769,-114.0611,18.32,58,23,8.83,MX,2024-05-06
347,harstad,68.799,16.5293,1.56,89,49,7.6,NO,2024-05-06
348,timimoun,29.2639,0.231,29.03,8,86,4.99,DZ,2024-05-06
349,relizane,35.7373,0.556,20.82,45,100,1.27,DZ,2024-05-06
350,morton,46.7722,-101.2615,15.12,94,100,9.93,US,2024-05-06
351,redencao,-4.2258,-38.7306,23.6,95,76,0.9,BR,2024-05-06
352,prince rupert,54.3161,-130.3201,7.83,87,100,9.26,CA,2024-05-06
353,hauterive,46.0901,3.4459,11.42,88,67,2.44,FR,2024-05-06
354,chunskiy,56.0815,99.6342,5.93,70,27,1.96,RU,2024-05-06
355,cabrican,15.1333,-91.6167,27.85,17,22,5.33,GT,2024-05-06
356,prainha,-1.8,-53.48,24.56,98,90,1.49,BR,2024-05-06
357,acajutla,13.5928,-89.8275,29.84,69,29,3.33,SV,2024-05-06
358,hotan,37.0997,79.9269,21.19,22,99,4.95,CN,2024-05-06
359,kerikeri,-35.2268,173.9474,18.84,82,10,5.81,NZ,2024-05-06
360,poronaysk,49.2167,143.1167,0.06,82,100,6.63,RU,2024-05-06
361,pangody,65.85,74.4859,-15.81,99,32,2.26,RU,2024-05-06
362,altamira,-3.2033,-52.2064,24.26,97,100,0.94,BR,2024-05-06
363,misratah,32.3754,15.0925,19.63,67,0,5.75,LY,2024-05-06
364,east ballina,-28.8667,153.5833,17.67,80,56,8.8,AU,2024-05-06
365,dulovo,43.8167,27.15,14.75,72,78,4.76,BG,2024-05-06
366,nemuro,43.3236,145.575,6.87,100,100,4.09,JP,2024-05-06
367,buka,40.8108,69.1986,20.61,41,44,1.63,UZ,2024-05-06
368,khandyga,62.6667,135.6,5.33,85,31,2.5,RU,2024-05-06
369,sao vicente,-23.9631,-46.3919,31.82,26,0,1.05,BR,2024-05-06
370,ulaangom,49.9811,92.0667,12.95,55,99,7.23,MN,2024-05-06
371,gibara,21.1097,-76.1317,26.62,86,43,6.36,CU,2024-05-06
372,al harithah,30.7186,47.7208,24.98,69,0,5.14,IQ,2024-05-06
373,sam roi yot,12.2708,99.872,27.99,89,47,1.29,TH,2024-05-06
374,northam,51.0333,-4.2167,11.33,91,16,5.18,GB,2024-05-06
375,ambikapur,23.1167,83.2,25.6,33,1,2.26,IN,2024-05-06
376,lexington,37.9887,-84.4777,22.0,84,75,3.6,US,2024-05-06
377,san martin,-33.081,-68.4681,14.3,65,10,3.18,AR,2024-05-06
378,bangui,4.3612,18.555,29.1,79,51,0.0,CF,2024-05-06
379,cozumel,20.5083,-86.9458,31.08,66,40,6.69,MX,2024-05-06
380,saldanha,-33.0117,17.9442,14.03,93,7,5.07,ZA,2024-05-06
381,rauco,-34.9267,-71.3187,12.23,54,0,2.57,CL,2024-05-06
382,redmond,47.674,-122.1215,13.88,75,83,3.08,US,2024-05-06
383,pedregulho,-20.2569,-47.4767,19.57,65,0,2.32,BR,2024-05-06
384,porto novo,6.4965,2.6036,28.9,79,100,2.81,BJ,2024-05-06
385,san luis de la loma,17.2706,-100.8939,30.18,53,69,3.84,MX,2024-05-06
386,howard springs,-12.497,131.047,24.9,81,91,2.89,AU,2024-05-06
387,vadso,70.0744,29.7487,-3.51,86,75,5.14,NO,2024-05-06
388,antofagasta,-23.65,-70.4,16.6,88,70,1.88,CL,2024-05-06
389,port hueneme,34.1478,-119.1951,28.21,43,0,6.17,US,2024-05-06
390,ad dabbah,18.05,30.95,28.14,17,0,6.12,SD,2024-05-06
391,fortuna,40.5982,-124.1573,13.85,83,100,6.17,US,2024-05-06
392,umarkhed,19.6,77.7,32.22,27,0,0.88,IN,2024-05-06
393,cam ranh,11.9214,109.1591,25.98,94,20,1.54,VN,2024-05-06
394,tamanrasset,22.785,5.5228,26.55,26,100,3.8,DZ,2024-05-06
395,kailua-kona,19.6406,-155.9956,25.46,84,22,1.34,US,2024-05-06
396,sandnessjoen,66.0217,12.6316,0.29,67,7,4.04,NO,2024-05-06
397,mount darwin,-16.7725,31.5838,14.38,70,0,1.43,ZW,2024-05-06
398,olonkinbyen,70.9221,-8.7187,0.3,96,100,7.38,SJ,2024-05-06
399,initao,8.4997,124.3039,27.38,79,71,1.75,PH,2024-05-06
400,aasiaat,68.7098,-52.8699,-10.41,86,81,2.63,GL,2024-05-06
401,colesberg,-30.72,25.0972,16.36,33,0,2.6,ZA,2024-05-06
402,nouadhibou,20.931,-17.0347,18.99,82,77,5.66,MR,2024-05-06
403,thames,-37.1333,175.5333,14.23,70,89,5.11,NZ,2024-05-06
404,ocean shores,46.9737,-124.1563,13.86,77,20,8.23,US,2024-05-06
405,idri,27.5,13.2667,26.06,26,46,3.82,LY,2024-05-06
406,lamar,33.6668,-95.5836,26.47,84,100,4.12,US,2024-05-06
407,sidi bel abbes,35.1899,-0.6309,17.44,56,95,2.21,DZ,2024-05-06
408,kegeyli shahar,42.7767,59.6078,18.05,48,75,5.33,UZ,2024-05-06
409,mount pleasant,32.7941,-79.8626,25.0,88,0,5.14,US,2024-05-06
410,rasht,37.2808,49.5832,14.57,97,100,1.8,IR,2024-05-06
411,polyarnyy,69.1989,33.4478,-3.35,65,100,6.5,RU,2024-05-06
412,caudete,38.7068,-0.9872,14.66,85,27,3.13,ES,2024-05-06
413,wenatchee,47.4235,-120.3103,17.8,33,75,8.23,US,2024-05-06
414,amga,60.8953,131.9608,10.09,59,57,4.46,RU,2024-05-06
415,tulum,20.2167,-87.4667,28.99,69,14,3.07,MX,2024-05-06
416,esil,51.9556,66.4042,9.31,92,100,3.59,KZ,2024-05-06
417,faya-largeau,17.9257,19.1043,31.89,16,0,8.45,TD,2024-05-06
418,letlhakane,-21.4167,25.5833,18.82,29,0,4.14,BW,2024-05-06
419,iquique,-20.2208,-70.1431,19.02,82,59,2.03,CL,2024-05-06
420,ouadda,8.0777,22.4007,30.19,32,86,0.73,CF,2024-05-06
421,dossor,47.5272,52.9811,13.04,26,1,2.5,KZ,2024-05-06
422,chibougamau,49.9168,-74.3659,9.79,66,20,7.72,CA,2024-05-06
423,sinabang,2.4803,96.3801,25.72,92,100,2.13,ID,2024-05-06
424,mount gambier,-37.8333,140.7667,10.81,85,13,2.25,AU,2024-05-06
425,arkhangel'sk,64.5401,40.5433,-2.15,80,20,1.0,RU,2024-05-06
426,bandon,51.7469,-8.7425,12.77,94,10,3.77,IE,2024-05-06
427,geraldton,-28.7667,114.6,10.23,87,1,0.0,AU,2024-05-06
428,whitby,54.4877,-0.615,11.67,95,71,1.79,GB,2024-05-06
429,jiazi,22.8779,116.067,24.71,90,95,5.7,CN,2024-05-06
430,jieshi,22.8134,115.8257,25.12,89,92,6.13,CN,2024-05-06
431,darwin,-12.4611,130.8418,23.99,62,20,4.12,AU,2024-05-06
432,yermentau,51.6214,73.1069,6.29,58,100,3.36,KZ,2024-05-06
433,gebeit,21.0667,36.3167,23.34,37,0,2.21,SD,2024-05-06
434,thunder bay,48.4001,-89.3168,16.95,36,100,5.14,CA,2024-05-06
435,san pedro pochutla,15.7333,-96.4667,29.84,49,16,4.36,MX,2024-05-06
436,iskateley,67.6803,53.1512,-10.55,91,80,4.02,RU,2024-05-06
437,grafton,42.207,-71.6856,22.73,69,0,3.6,US,2024-05-06
438,jutai,-5.1833,-68.9,25.27,95,99,1.45,BR,2024-05-06
439,dolinsk,47.35,142.8,2.07,99,100,8.69,RU,2024-05-06
440,shetpe,44.1667,52.1167,12.33,67,100,4.66,KZ,2024-05-06
441,springbok,-29.6643,17.8865,14.67,42,0,1.38,ZA,2024-05-06
442,san luis,-33.295,-66.3356,12.67,86,0,6.73,AR,2024-05-06
443,ves'yegonsk,58.664,37.2604,-2.23,64,8,1.78,RU,2024-05-06
444,haiku-pauwela,20.9219,-156.3051,25.09,79,40,10.29,US,2024-05-06
445,kirakira,-10.4544,161.9205,30.16,71,99,3.63,SB,2024-05-06
446,chichen-itza,20.6667,-88.5667,35.03,46,20,5.14,MX,2024-05-06
447,bomdila,27.25,92.4,4.98,81,100,2.33,IN,2024-05-06
448,newman,37.3138,-121.0208,22.3,41,27,2.24,US,2024-05-06
449,yelizovo,53.1873,158.3805,4.08,70,75,4.0,RU,2024-05-06
450,fuller heights,27.9092,-81.9981,31.3,53,40,1.54,US,2024-05-06
451,isola di capo rizzuto,38.96,17.0933,18.44,89,4,6.45,IT,2024-05-06
452,tidjikja,18.5564,-11.4271,32.38,10,0,3.13,MR,2024-05-06
453,golfito,8.639,-83.166,25.41,91,93,1.02,CR,2024-05-06
454,crane,31.3974,-102.3501,32.78,10,2,10.79,US,2024-05-06
455,berryville,36.3648,-93.568,24.95,80,48,4.89,US,2024-05-06
456,berdigestyakh,62.0989,126.6992,5.39,94,100,4.47,RU,2024-05-06
457,bakaly,55.1789,53.8028,1.02,94,11,2.86,RU,2024-05-06
458,new plymouth,-39.0667,174.0833,9.06,65,7,6.09,NZ,2024-05-06
459,urangan,-25.3,152.9,20.11,84,12,3.58,AU,2024-05-06
460,ballina,-28.8667,153.5667,17.66,80,56,8.8,AU,2024-05-06
461,rio gallegos,-51.6226,-69.2181,3.03,81,75,2.06,AR,2024-05-06
462,dongdai,26.2419,119.6169,21.95,87,100,1.52,CN,2024-05-06
463,mitu,1.1983,-70.1733,25.45,85,100,0.45,CO,2024-05-06
464,vicuna mackenna,-33.9197,-64.3922,14.38,87,92,2.99,AR,2024-05-06
465,lubuklinggau,-3.3,102.8667,22.78,99,99,1.19,ID,2024-05-06
466,santa ana,33.7456,-117.8678,28.14,47,20,5.66,US,2024-05-06
467,khorramabad,33.4878,48.3558,11.79,87,75,4.12,IR,2024-05-06
468,xincheng,33.6333,115.1833,18.86,73,3,1.08,CN,2024-05-06
469,indramayu,-6.3264,108.32,25.41,73,2,3.03,ID,2024-05-06
470,ejea de los caballeros,42.1263,-1.1372,11.12,68,3,7.15,ES,2024-05-06
471,bonnyville,54.2668,-110.735,10.89,86,100,4.4,CA,2024-05-06
472,sucre,-19.0333,-65.2627,19.29,46,23,1.48,BO,2024-05-06
473,mejit,10.2753,170.8646,27.34,81,99,9.3,MH,2024-05-06
474,yoloten,37.2989,62.3597,25.92,29,78,4.95,TM,2024-05-06
475,mikuni,36.2171,136.1519,15.95,95,100,4.77,JP,2024-05-06
476,margate,51.3813,1.3862,11.61,94,71,2.7,GB,2024-05-06
477,deming,32.2687,-107.7586,26.94,10,40,11.83,US,2024-05-06
478,bocsa,45.3733,21.7092,14.5,67,100,1.94,RO,2024-05-06
479,happy valley-goose bay,53.3168,-60.3315,12.17,47,75,2.57,CA,2024-05-06
480,dapa,9.7594,126.0531,27.42,75,94,0.71,PH,2024-05-06
481,dakhla,23.6848,-15.958,18.99,82,100,9.9,EH,2024-05-06
482,sergeyevka,53.88,67.4158,9.09,80,56,6.56,KZ,2024-05-06
483,kawm umbu,24.4767,32.9463,22.78,24,0,4.78,EG,2024-05-06
484,howrah,22.5892,88.3103,23.0,100,100,3.09,IN,2024-05-06
485,arni,12.6667,79.2833,28.87,65,93,3.37,IN,2024-05-06
486,livingston,55.9029,-3.5226,12.14,98,75,1.54,GB,2024-05-06
487,taoudenni,22.6783,-3.9836,31.52,6,9,3.92,ML,2024-05-06
488,al hufuf,25.3646,49.5653,28.19,54,0,2.06,SA,2024-05-06
489,lata,40.1629,-8.3327,7.29,97,11,0.92,PT,2024-05-06
490,abu qurqas,27.9312,30.8384,20.13,46,12,5.35,EG,2024-05-06
491,qamdo,31.1667,97.2333,2.72,73,52,1.61,CN,2024-05-06
492,penzance,50.1186,-5.5371,12.38,92,10,4.88,GB,2024-05-06
493,chernyshevskiy,63.0128,112.4714,0.89,98,100,6.12,RU,2024-05-06
494,pratt,37.6439,-98.7376,29.86,73,40,5.14,US,2024-05-06
495,an nimas,19.1455,42.1201,15.41,51,0,0.65,SA,2024-05-06
496,borcka,41.3632,41.6765,10.2,97,100,0.6,TR,2024-05-06
497,portland,45.5234,-122.6762,14.75,67,75,6.69,US,2024-05-06
498,sinop,41.7711,34.8709,5.42,68,0,2.76,TR,2024-05-06
499,nabinagar,23.8917,90.9733,21.29,86,82,3.92,BD,2024-05-06
500,isangel,-19.55,169.2667,24.06,83,40,2.06,VU,2024-05-06
501,torghay,49.6339,63.4981,10.62,84,100,2.05,KZ,2024-05-06
502,cannonvale,-20.2833,148.7,23.66,82,45,6.47,AU,2024-05-06
503,rongelap,11.1635,166.8941,28.12,76,74,8.75,MH,2024-05-06
504,yankton,42.8711,-97.3973,19.14,82,100,11.32,US,2024-05-06
505,vylkove,45.4021,29.586,12.48,71,24,5.69,UA,2024-05-06
506,raduzhnyy,62.0961,77.475,-4.43,87,97,3.43,RU,2024-05-06
507,weno,7.4515,151.8468,30.97,79,100,2.57,FM,2024-05-06
508,igrim,63.1906,64.4162,-1.52,97,100,4.82,RU,2024-05-06
509,vila velha,-20.3297,-40.2925,24.97,83,20,1.03,BR,2024-05-06
510,damghan,36.1683,54.348,18.13,46,98,0.53,IR,2024-05-06
511,lota,-37.0833,-73.1667,11.7,89,70,11.52,CL,2024-05-06
512,dalbandin,28.8947,64.4101,27.47,19,0,2.57,PK,2024-05-06
513,tarko-sale,64.9225,77.785,-10.41,91,15,3.25,RU,2024-05-06
514,tosu,33.3667,130.5167,18.94,77,99,2.67,JP,2024-05-06
515,walvis bay,-22.9575,14.5053,14.53,94,0,2.57,NA,2024-05-06
516,tianshui,34.5439,105.6897,15.5,78,97,0.85,CN,2024-05-06
517,gaalkacyo,6.7697,47.4308,26.94,76,94,2.78,SO,2024-05-06
518,andalgala,-27.5819,-66.3165,21.83,21,1,1.79,AR,2024-05-06
519,barkhan,29.8977,69.5256,23.05,23,0,2.59,PK,2024-05-06
520,roja,57.5,22.8167,5.75,74,100,6.05,LV,2024-05-06
521,mont-dore,-22.2833,166.5833,25.0,99,66,3.82,NC,2024-05-06
522,beyneu,45.3167,55.2,12.72,76,96,5.17,KZ,2024-05-06
523,patterson,37.4716,-121.1297,23.75,41,18,4.38,US,2024-05-06
524,qingquan,30.4511,115.2559,20.83,83,96,1.05,CN,2024-05-06
525,cabedelo,-6.9811,-34.8339,26.37,86,100,4.22,BR,2024-05-06
526,hammerfest,70.6634,23.6821,-1.75,93,75,2.06,NO,2024-05-06
527,gdov,58.7406,27.8122,1.56,58,99,4.19,RU,2024-05-06
528,fort irwin,35.2627,-116.6848,23.9,14,0,4.63,US,2024-05-06
529,sydney,-33.8679,151.2073,16.79,85,75,3.09,AU,2024-05-06
530,ciudad acuna,29.3232,-100.9522,34.32,45,0,6.17,MX,2024-05-06
531,novoagansk,61.9449,76.6625,-3.44,88,99,4.27,RU,2024-05-06
532,benghazi,32.1167,20.0667,18.61,62,0,4.12,LY,2024-05-06
533,basco,20.4487,121.9702,28.27,74,55,3.25,PH,2024-05-06
534,taltal,-25.4,-70.4833,15.32,86,77,0.71,CL,2024-05-06
535,mili,6.0815,171.735,28.26,82,94,8.84,MH,2024-05-06
536,pisco,-13.7,-76.2167,20.03,83,0,7.72,PE,2024-05-06
537,boa vista,2.8197,-60.6733,23.99,94,75,1.54,BR,2024-05-06
538,dazhou,31.2159,107.5009,20.53,80,100,1.6,CN,2024-05-06
539,nadi,-17.8,177.4167,30.0,66,75,4.12,FJ,2024-05-06
540,midvagur,62.0511,-7.1939,5.46,81,20,2.06,FO,2024-05-06
541,nebbi,2.4783,31.0889,19.8,87,65,2.32,UG,2024-05-06
542,puerto baquerizo moreno,-0.9,-89.6,28.55,65,20,4.12,EC,2024-05-06
543,ponnani,10.767,75.9252,27.62,77,85,1.35,IN,2024-05-06
544,wisconsin rapids,44.3836,-89.8174,22.16,30,0,5.66,US,2024-05-06
545,san blas,21.5167,-105.2667,34.94,64,100,2.07,MX,2024-05-06
546,kvissleby,62.2936,17.375,-2.09,79,6,1.24,SE,2024-05-06
547,saint-pierre,-21.3393,55.4781,21.82,68,0,3.6,RE,2024-05-06
548,manismata,-2.4667,111.0333,23.7,97,25,1.33,ID,2024-05-06
549,hengchun,22.0042,120.7439,27.29,77,99,3.56,TW,2024-05-06
550,valente,-11.4122,-39.4619,22.19,76,48,4.61,BR,2024-05-06
551,hovd,48.0056,91.6419,14.96,40,100,0.63,MN,2024-05-06
552,trairi,-3.2778,-39.2689,25.64,87,100,2.58,BR,2024-05-06
553,wainwright,52.839,-110.8572,10.6,85,100,5.4,CA,2024-05-06
554,santa rosa,14.3122,121.1114,29.5,79,40,4.72,PH,2024-05-06
555,boali,4.8005,18.1275,27.61,43,20,0.64,CF,2024-05-06
556,jinghong,21.991,100.7341,20.85,66,93,0.7,CN,2024-05-06
557,al jumum,21.6169,39.6981,27.66,34,0,2.57,SA,2024-05-06
558,yermakovskoye,53.2831,92.4003,9.18,85,100,1.54,RU,2024-05-06
559,thabazimbi,-24.5917,27.4116,17.17,25,0,2.18,ZA,2024-05-06
560,ashland,40.8167,-82.2665,19.98,80,100,3.41,US,2024-05-06
561,wanxian,30.8039,108.3897,22.88,76,100,0.51,CN,2024-05-06
562,ulladulla,-35.35,150.4667,14.7,81,96,2.62,AU,2024-05-06
563,dubbo,-32.25,148.6167,13.07,71,0,6.17,AU,2024-05-06
564,sault ste. marie,46.5168,-84.3333,20.16,31,0,3.09,CA,2024-05-06
565,pokrovsk,48.282,37.1758,11.89,80,60,4.27,UA,2024-05-06
566,nahavand,34.1885,48.377,9.85,91,83,4.73,IR,2024-05-06
567,gonzales,30.2385,-90.9201,30.59,68,40,6.17,US,2024-05-06
568,korsakov,46.6328,142.7813,1.02,94,100,12.61,RU,2024-05-06
569,marica,-22.9194,-42.8186,24.97,84,0,3.68,BR,2024-05-06
570,biltine,14.5333,20.9167,31.01,13,0,2.97,TD,2024-05-06
571,kota kinabalu,5.9749,116.0724,25.99,89,20,1.54,MY,2024-05-06
572,coyhaique,-45.5752,-72.0662,0.97,86,100,4.12,CL,2024-05-06
573,phalaborwa,-23.943,31.1411,18.03,47,0,1.1,ZA,2024-05-06
574,fuyang,32.9,115.8167,18.42,77,5,1.32,CN,2024-05-06
575,pucallpa,-8.3791,-74.5539,30.02,66,20,2.06,PE,2024-05-06
576,noosa heads,-26.3833,153.15,20.62,78,89,8.41,AU,2024-05-06
577,changji,44.0167,87.3167,18.44,55,0,4.0,CN,2024-05-06
578,novyy urengoy,66.0833,76.6333,-13.11,96,46,4.03,RU,2024-05-06
579,nkove,-7.95,30.85,22.61,79,10,2.13,TZ,2024-05-06
580,magadan,59.5667,150.8,-0.26,84,81,1.62,RU,2024-05-06
581,motueka,-41.1333,173.0167,11.72,57,22,0.89,NZ,2024-05-06
582,huanggang,23.677,116.9996,24.94,89,100,3.15,CN,2024-05-06
583,saint-denis,48.9167,2.3333,12.45,81,0,2.57,FR,2024-05-06
584,gedo,9.0167,37.45,16.01,61,98,0.89,ET,2024-05-06
585,puerto deseado,-47.7503,-65.8938,4.06,59,26,4.73,AR,2024-05-06
586,arta,39.1606,20.9853,14.8,84,86,1.08,GR,2024-05-06
587,kyren,51.6828,102.1408,15.53,45,83,2.68,RU,2024-05-06
588,axim,4.8699,-2.2405,27.61,83,95,2.22,GH,2024-05-06
589,breves,-1.6822,-50.4803,24.65,97,100,1.35,BR,2024-05-06
590,tionk essil,12.7856,-16.5217,26.03,67,6,4.13,SN,2024-05-06
591,sisimiut,66.9395,-53.6735,-5.24,80,78,3.07,GL,2024-05-06
592,belmonte,-15.8631,-38.8828,25.31,84,0,3.27,BR,2024-05-06
593,machiques,10.0644,-72.545,29.57,72,100,2.18,VE,2024-05-06
594,ramapuram,13.1167,79.2,26.9,63,80,4.37,IN,2024-05-06
595,soma,39.1855,27.6094,10.87,52,0,2.83,TR,2024-05-06
